{"type":"FeatureCollection","features":[{"type":"Feature","id":"ae-hassyan-swor","geometry":{"type":"Point","coordinates":[55.03,24.96]},"properties":{"assumptionId":"desalination-swro-1.0","category":"water_infrastructure","coordinates":[55.03,24.96],"country":"AE","demandMw":{"low":71.0,"central":89.0,"high":107.0},"geographyId":"AE-86790563B34058819691262","id":"ae-hassyan-swor","lastObservedAt":"2024-04-17T00:00:00Z","lifecycle":"under_construction","locationPrecision":"exact","name":"Hassyan seawater reverse-osmosis plant","operator":"DEWA","sourceType":"official_verified","sourceUrl":"https://dewa.gov.ae/en/about-us/media-publications/latest-news/2024/04/dewa-and-acwa-power-reach-financial-close","subtype":"desalination","targetYear":2027,"valueKind":"estimated","sourceIds":["dewa-hassyan-2024"],"externalIds":{},"aliases":["Hassyan seawater reverse-osmosis plant"],"admin1Id":"AE-86790563B34058819691262","confidence":78}},{"type":"Feature","id":"au-alkimos-desalination","geometry":{"type":"Point","coordinates":[115.68,-31.61]},"properties":{"assumptionId":"desalination-swro-1.0","category":"water_infrastructure","coordinates":[115.68,-31.61],"country":"AU","demandMw":{"low":17.0,"central":21.0,"high":26.0},"geographyId":"AU-82085004B93533858076668","id":"au-alkimos-desalination","lastObservedAt":"2025-01-01T00:00:00Z","lifecycle":"under_construction","locationPrecision":"exact","name":"Alkimos Seawater Desalination Plant","operator":"Water Corporation","sourceType":"official_verified","sourceUrl":"https://www.watercorporation.com.au/Our-water/Desalination/Alkimos-Seawater-Desalination-Plant","subtype":"desalination","targetYear":2028,"valueKind":"estimated","sourceIds":["watercorp-alkimos-2025"],"externalIds":{},"aliases":["Alkimos Seawater Desalination Plant"],"admin1Id":"AU-82085004B93533858076668","confidence":78}},{"type":"Feature","id":"au-aws-expansion","geometry":{"type":"Point","coordinates":[151.21,-33.87]},"properties":{"assumptionId":"multi-campus-investment-1.0","category":"data_centre","coordinates":[151.21,-33.87],"country":"AU","demandMw":{"low":450.0,"central":750.0,"high":1200.0},"geographyId":"AU","id":"au-aws-expansion","lastObservedAt":"2026-05-14T00:00:00Z","lifecycle":"announced","locationPrecision":"region_centroid","name":"AWS Australia infrastructure expansion","operator":"Amazon Web Services","sourceType":"official_verified","sourceUrl":"https://www.aboutamazon.com.au/news/aws/accelerating-australia-and-new-zealands-ai-ambitions-built-on-20-years-of-innovation","subtype":"cloud","targetYear":2029,"valueKind":"estimated","sourceIds":["aws-australia-investment-2025"],"externalIds":{},"aliases":["AWS Australia infrastructure expansion"],"confidence":56}},{"type":"Feature","id":"br-scala-ai-city","geometry":{"type":"Point","coordinates":[-51.23,-30.03]},"properties":{"assumptionId":"phased-ai-campus-1.0","category":"data_centre","coordinates":[-51.23,-30.03],"country":"BR","demandMw":{"low":500.0,"central":1000.0,"high":1800.0},"geographyId":"BR-RS","id":"br-scala-ai-city","lastObservedAt":"2024-09-11T00:00:00Z","lifecycle":"announced","locationPrecision":"region_centroid","name":"Scala AI City","operator":"Scala Data Centers","sourceType":"official_verified","sourceUrl":"https://scaladatacenters.com/en/with-an-initial-investment-of-usd-500-million-scala-data-centers-and-rio-grande-do-sul-government-sign-agreement-for-largest-digital-infrastructure-project-in-the-state-of-southern-brazil/","subtype":"ai_hpc","targetYear":2031,"valueKind":"estimated","sourceIds":["scala-ai-city-2025"],"externalIds":{},"aliases":["Scala AI City"],"confidence":56}},{"type":"Feature","id":"cn-east-data-west-hubs","geometry":{"type":"Point","coordinates":[103.8,36.1]},"properties":{"assumptionId":"national-hub-programme-1.0","category":"data_centre","coordinates":[103.8,36.1],"country":"CN","demandMw":{"low":1800.0,"central":3200.0,"high":5200.0},"geographyId":"CN","id":"cn-east-data-west-hubs","lastObservedAt":"2022-02-23T00:00:00Z","lifecycle":"under_construction","locationPrecision":"region_centroid","name":"East Data, West Computing hub programme","operator":"National Development and Reform Commission","sourceType":"official_verified","sourceUrl":"https://english.www.gov.cn/statecouncil/ministries/202202/23/content_WS6215bd65c6d09c94e48a56c8.html","subtype":"ai_hpc","targetYear":2030,"valueKind":"estimated","sourceIds":["china-east-data-west-2022"],"externalIds":{},"aliases":["East Data, West Computing hub programme"],"confidence":56}},{"type":"Feature","id":"gb-microsoft-ai-expansion","geometry":{"type":"Point","coordinates":[-1.5,52.5]},"properties":{"assumptionId":"multi-campus-investment-1.0","category":"data_centre","coordinates":[-1.5,52.5],"country":"GB","demandMw":{"low":300.0,"central":600.0,"high":1000.0},"geographyId":"GB","id":"gb-microsoft-ai-expansion","lastObservedAt":"2025-09-16T00:00:00Z","lifecycle":"announced","locationPrecision":"region_centroid","name":"Microsoft UK AI infrastructure expansion","operator":"Microsoft","sourceType":"official_verified","sourceUrl":"https://blogs.microsoft.com/on-the-issues/2025/09/16/microsoft-30-billion-uk-ai-future","subtype":"ai_hpc","targetYear":2028,"valueKind":"estimated","sourceIds":["microsoft-uk-investment-2025"],"externalIds":{},"aliases":["Microsoft UK AI infrastructure expansion"],"confidence":56}},{"type":"Feature","id":"in-google-visakhapatnam","geometry":{"type":"Point","coordinates":[83.22,17.69]},"properties":{"assumptionId":"public-ai-hub-1.0","category":"data_centre","coordinates":[83.22,17.69],"country":"IN","demandMw":{"low":650.0,"central":1000.0,"high":1400.0},"geographyId":"IN-AP","id":"in-google-visakhapatnam","lastObservedAt":"2025-10-14T00:00:00Z","lifecycle":"announced","locationPrecision":"city_centroid","name":"Google Visakhapatnam AI hub","operator":"Google","sourceType":"official_verified","sourceUrl":"https://blog.google/intl/en-in/company-news/our-first-ai-hub-in-india-powered-by-a-15-billion-investment/","subtype":"ai_hpc","targetYear":2030,"valueKind":"estimated","sourceIds":["google-india-ai-hub-2025"],"externalIds":{},"aliases":["Google Visakhapatnam AI hub"],"confidence":68}},{"type":"Feature","id":"ma-casablanca-desalination","geometry":{"type":"Point","coordinates":[-7.74,33.47]},"properties":{"assumptionId":"desalination-swro-1.0","category":"water_infrastructure","coordinates":[-7.74,33.47],"country":"MA","demandMw":{"low":63.0,"central":78.0,"high":94.0},"geographyId":"MA","id":"ma-casablanca-desalination","lastObservedAt":"2025-06-26T00:00:00Z","lifecycle":"under_construction","locationPrecision":"city_centroid","name":"Casablanca desalination plant","operator":"ACCIONA-led consortium","sourceType":"official_verified","sourceUrl":"https://www.acciona.com/updates/news/acciona-signs-financing-casablanca-desalination-plant","subtype":"desalination","targetYear":2027,"valueKind":"estimated","sourceIds":["acciona-casablanca-2025"],"externalIds":{},"aliases":["Casablanca desalination plant"],"confidence":68}},{"type":"Feature","id":"osm-node-10014176940","geometry":{"type":"Point","coordinates":[-66.10899,18.417436]},"properties":{"address":{"street":"Avenida El Caño","houseNumber":"48","city":"Guaynabo","state":"PR","postcode":"00968","country":null},"category":"data_centre","coordinates":[-66.10899,18.417436],"country":"PR","geographyId":"PR","id":"osm-node-10014176940","lastObservedAt":"2026-07-01T15:55:32Z","lifecycle":"operational","locationPrecision":"exact","name":"Microsoft","operator":"Microsoft","sourceType":"community_mapped","sourceUrl":"https://www.openstreetmap.org/node/10014176940","subtype":"other_data_centre","valueKind":"observed","sourceIds":["openstreetmap-infrastructure"],"externalIds":{"osm":"node/10014176940"},"aliases":["Microsoft"],"confidence":78}},{"type":"Feature","id":"osm-node-10020456958","geometry":{"type":"Point","coordinates":[36.322808,33.546331]},"properties":{"category":"data_centre","coordinates":[36.322808,33.546331],"country":"SY","geographyId":"SY-8384693B24866558579919","id":"osm-node-10020456958","lastObservedAt":"2026-07-01T15:55:32Z","lifecycle":"operational","locationPrecision":"exact","name":"مركز خدمات لشركة ارامكس","sourceType":"community_mapped","sourceUrl":"https://www.openstreetmap.org/node/10020456958","subtype":"other_data_centre","valueKind":"observed","sourceIds":["openstreetmap-infrastructure"],"externalIds":{"osm":"node/10020456958"},"aliases":["مركز خدمات لشركة ارامكس"],"admin1Id":"SY-8384693B24866558579919","confidence":78}},{"type":"Feature","id":"osm-node-10062286674","geometry":{"type":"Point","coordinates":[-21.993466,64.049465]},"properties":{"category":"data_centre","coordinates":[-21.993466,64.049465],"country":"IS","geographyId":"IS00","id":"osm-node-10062286674","lastObservedAt":"2026-07-01T15:55:32Z","lifecycle":"operational","locationPrecision":"exact","name":"atNorth ICE01","operator":"atNorth","sourceType":"community_mapped","sourceUrl":"https://www.openstreetmap.org/node/10062286674","subtype":"other_data_centre","valueKind":"observed","website":"https://atnorth.com/colocation/ice01","sourceIds":["openstreetmap-infrastructure"],"externalIds":{"osm":"node/10062286674"},"aliases":["atNorth ICE01"],"admin1Id":"IS-53860390B39552912285510","confidence":78}},{"type":"Feature","id":"osm-node-10089225111","geometry":{"type":"Point","coordinates":[0.187134,48.053855]},"properties":{"address":{"street":"Rue de Villeneuve","houseNumber":"28","city":"Saint-Saturnin","state":null,"postcode":"72650","country":null},"category":"data_centre","coordinates":[0.187134,48.053855],"country":"FR","geographyId":"FRG0","id":"osm-node-10089225111","lastObservedAt":"2026-07-01T15:55:32Z","lifecycle":"operational","locationPrecision":"exact","name":"Datagrex","sourceType":"community_mapped","sourceUrl":"https://www.openstreetmap.org/node/10089225111","subtype":"other_data_centre","valueKind":"observed","website":"https://www.datagrex.com/","sourceIds":["openstreetmap-infrastructure"],"externalIds":{"osm":"node/10089225111"},"aliases":["Datagrex"],"admin1Id":"FR-19338628B99642989531496","confidence":78}},{"type":"Feature","id":"osm-node-10147406397","geometry":{"type":"Point","coordinates":[13.369301,52.502034]},"properties":{"address":{"street":"Lützowstraße","houseNumber":"106","city":"Berlin","state":null,"postcode":"10785","country":null},"category":"data_centre","coordinates":[13.369301,52.502034],"country":"DE","geographyId":"DE30","id":"osm-node-10147406397","lastObservedAt":"2026-07-01T15:55:32Z","lifecycle":"operational","locationPrecision":"exact","name":"IPB Internet Provider in Berlin GmbH","sourceType":"community_mapped","sourceUrl":"https://www.openstreetmap.org/node/10147406397","subtype":"other_data_centre","valueKind":"observed","website":"https://www.ipb.de/","sourceIds":["openstreetmap-infrastructure"],"externalIds":{"osm":"node/10147406397"},"aliases":["IPB Internet Provider in Berlin GmbH"],"admin1Id":"DE-10402087B20892132820961","confidence":78}},{"type":"Feature","id":"osm-node-10151456045","geometry":{"type":"Point","coordinates":[-72.546429,45.879305]},"properties":{"address":{"street":"Rue Canadien","houseNumber":"2525","city":"Drummondville","state":null,"postcode":"J2C 7W2","country":null},"category":"data_centre","coordinates":[-72.546429,45.879305],"country":"CA","facilityRef":"MTL9-H","geographyId":"CA-82249235B52639524229375","id":"osm-node-10151456045","lastObservedAt":"2026-07-01T15:55:32Z","lifecycle":"operational","locationPrecision":"exact","name":"Cologix","operator":"Cologix","sourceType":"community_mapped","sourceUrl":"https://www.openstreetmap.org/node/10151456045","subtype":"other_data_centre","valueKind":"observed","sourceIds":["openstreetmap-infrastructure"],"externalIds":{"osm":"node/10151456045"},"aliases":["Cologix"],"admin1Id":"CA-82249235B52639524229375","confidence":78}},{"type":"Feature","id":"osm-node-10171383675","geometry":{"type":"Point","coordinates":[116.263298,40.033906]},"properties":{"category":"data_centre","coordinates":[116.263298,40.033906],"country":"CN","geographyId":"CN-43563684B17418114845297","id":"osm-node-10171383675","lastObservedAt":"2026-07-01T15:55:32Z","lifecycle":"operational","locationPrecision":"exact","name":"中国银行数据中心","sourceType":"community_mapped","sourceUrl":"https://www.openstreetmap.org/node/10171383675","subtype":"other_data_centre","valueKind":"observed","sourceIds":["openstreetmap-infrastructure"],"externalIds":{"osm":"node/10171383675"},"aliases":["中国银行数据中心"],"admin1Id":"CN-43563684B17418114845297","confidence":78}},{"type":"Feature","id":"osm-node-10177608934","geometry":{"type":"Point","coordinates":[9.066904,45.480306]},"properties":{"address":{"street":"Via Enrico Fermi","houseNumber":null,"city":"Settimo Milanese","state":null,"postcode":null,"country":null},"category":"data_centre","coordinates":[9.066904,45.480306],"country":"IT","geographyId":"ITC4","id":"osm-node-10177608934","lastObservedAt":"2026-07-01T15:55:32Z","lifecycle":"operational","locationPrecision":"exact","name":"Avalon 2","operator":"Irideos","sourceType":"community_mapped","sourceUrl":"https://www.openstreetmap.org/node/10177608934","subtype":"other_data_centre","valueKind":"observed","website":"https://irideos.it/avalon2/","sourceIds":["openstreetmap-infrastructure"],"externalIds":{"osm":"node/10177608934"},"aliases":["Avalon 2"],"admin1Id":"IT-72843720B99597932318450","confidence":78}},{"type":"Feature","id":"osm-node-10182165798","geometry":{"type":"Point","coordinates":[90.944898,27.245217]},"properties":{"category":"data_centre","coordinates":[90.944898,27.245217],"country":"BT","geographyId":"BT-66845921B52582047921765","id":"osm-node-10182165798","lastObservedAt":"2026-07-01T15:55:32Z","lifecycle":"operational","locationPrecision":"exact","name":"Community Information Center","operator":"Nima Om","sourceType":"community_mapped","sourceUrl":"https://www.openstreetmap.org/node/10182165798","subtype":"other_data_centre","valueKind":"observed","sourceIds":["openstreetmap-infrastructure"],"externalIds":{"osm":"node/10182165798"},"aliases":["Community Information Center"],"admin1Id":"BT-66845921B52582047921765","confidence":78}},{"type":"Feature","id":"osm-node-10206899831","geometry":{"type":"Point","coordinates":[11.360202,44.520098]},"properties":{"category":"data_centre","coordinates":[11.360202,44.520098],"country":"IT","geographyId":"ITH5","id":"osm-node-10206899831","lastObservedAt":"2026-07-01T15:55:32Z","lifecycle":"operational","locationPrecision":"exact","name":"ECMWF - Centro Meteo Europeo","operator":"ECMWF","sourceType":"community_mapped","sourceUrl":"https://www.openstreetmap.org/node/10206899831","startDate":"2021-09-14","subtype":"other_data_centre","valueKind":"observed","website":"https://www.ecmwf.int/","sourceIds":["openstreetmap-infrastructure"],"externalIds":{"osm":"node/10206899831"},"aliases":["ECMWF - Centro Meteo Europeo"],"admin1Id":"IT-72843720B59566147937015","confidence":78}},{"type":"Feature","id":"osm-node-10206899878","geometry":{"type":"Point","coordinates":[11.359426,44.520438]},"properties":{"category":"data_centre","coordinates":[11.359426,44.520438],"country":"IT","geographyId":"ITH5","id":"osm-node-10206899878","lastObservedAt":"2026-07-01T15:55:32Z","lifecycle":"operational","locationPrecision":"exact","name":"Supercalcolatore Leonardo - Rete EuroHPC","operator":"Cineca","sourceType":"community_mapped","sourceUrl":"https://www.openstreetmap.org/node/10206899878","startDate":"2022-11-24","subtype":"other_data_centre","valueKind":"observed","website":"https://www.cineca.it/temi-caldi/Leonardo","sourceIds":["openstreetmap-infrastructure"],"externalIds":{"osm":"node/10206899878","wikidata":"Q65128414","wikipedia":"it:Leonardo (supercomputer)"},"aliases":["Supercalcolatore Leonardo - Rete EuroHPC"],"admin1Id":"IT-72843720B59566147937015","confidence":78}},{"type":"Feature","id":"osm-node-10241762412","geometry":{"type":"Point","coordinates":[5.07767,47.340051]},"properties":{"address":{"street":"Rue de la Redoute","houseNumber":"24","city":"Saint-Apollinaire","state":null,"postcode":"21850","country":null},"category":"data_centre","coordinates":[5.07767,47.340051],"country":"FR","geographyId":"FRC1","id":"osm-node-10241762412","lastObservedAt":"2026-07-01T15:55:32Z","lifecycle":"operational","locationPrecision":"exact","name":"DTiX","sourceType":"community_mapped","sourceUrl":"https://www.openstreetmap.org/node/10241762412","subtype":"other_data_centre","valueKind":"observed","website":"https://www.dtix.fr/","sourceIds":["openstreetmap-infrastructure"],"externalIds":{"osm":"node/10241762412"},"aliases":["DTiX"],"admin1Id":"FR-19338628B30439183828151","confidence":78}},{"type":"Feature","id":"osm-node-10295346393","geometry":{"type":"Point","coordinates":[28.044302,45.426602]},"properties":{"address":{"street":"Strada Ovidiu","houseNumber":"13","city":"Galați","state":null,"postcode":"800080","country":null},"category":"data_centre","coordinates":[28.044302,45.426602],"country":"RO","geographyId":"RO22","id":"osm-node-10295346393","lastObservedAt":"2026-07-01T15:55:32Z","lifecycle":"operational","locationPrecision":"exact","name":"RCAST Hosting","sourceType":"community_mapped","sourceUrl":"https://www.openstreetmap.org/node/10295346393","subtype":"other_data_centre","valueKind":"observed","website":"https://www.rcast.net","sourceIds":["openstreetmap-infrastructure"],"externalIds":{"osm":"node/10295346393"},"aliases":["RCAST Hosting"],"confidence":78}},{"type":"Feature","id":"osm-node-10299599312","geometry":{"type":"Point","coordinates":[151.189882,-33.919309]},"properties":{"address":{"street":"Bourke Road","houseNumber":"200","city":null,"state":null,"postcode":null,"country":null},"category":"data_centre","coordinates":[151.189882,-33.919309],"country":"AU","facilityRef":"SY5","geographyId":"AU-82085004B21656044714531","id":"osm-node-10299599312","lastObservedAt":"2026-07-01T15:55:32Z","lifecycle":"operational","locationPrecision":"exact","name":"Equinix SY5","operator":"Equinix","sourceType":"community_mapped","sourceUrl":"https://www.openstreetmap.org/node/10299599312","subtype":"other_data_centre","valueKind":"observed","website":"https://www.equinix.com/data-centers/asia-pacific-colocation/australia-colocation/sydney-data-centers/sy5","sourceIds":["openstreetmap-infrastructure"],"externalIds":{"osm":"node/10299599312"},"aliases":["Equinix SY5"],"admin1Id":"AU-82085004B21656044714531","confidence":78}},{"type":"Feature","id":"osm-node-10316973933","geometry":{"type":"Point","coordinates":[9.005672,44.99329]},"properties":{"category":"data_centre","coordinates":[9.005672,44.99329],"country":"IT","geographyId":"ITC4","id":"osm-node-10316973933","lastObservedAt":"2026-07-01T15:55:32Z","lifecycle":"operational","locationPrecision":"exact","name":"Mapped data centre · OSM 10316973933","operator":"TIM","sourceType":"community_mapped","sourceUrl":"https://www.openstreetmap.org/node/10316973933","subtype":"other_data_centre","valueKind":"observed","sourceIds":["openstreetmap-infrastructure"],"externalIds":{"osm":"node/10316973933"},"aliases":["Mapped data centre · OSM 10316973933"],"admin1Id":"IT-72843720B99597932318450","confidence":78}},{"type":"Feature","id":"osm-node-10435617347","geometry":{"type":"Point","coordinates":[4.765313,52.281445]},"properties":{"address":{"street":"Cessnalaan","houseNumber":"50","city":"Schiphol-Rijk","state":null,"postcode":"1119NL","country":null},"category":"data_centre","coordinates":[4.765313,52.281445],"country":"NL","facilityRef":"AMS7","geographyId":"NL32","id":"osm-node-10435617347","lastObservedAt":"2026-07-01T15:55:32Z","lifecycle":"operational","locationPrecision":"exact","name":"Digital Realty AMS7","operator":"Digital Realty","sourceType":"community_mapped","sourceUrl":"https://www.openstreetmap.org/node/10435617347","subtype":"other_data_centre","valueKind":"observed","website":"https://www.digitalrealty.com/data-centers/emea/amsterdam/ams7","sourceIds":["openstreetmap-infrastructure"],"externalIds":{"osm":"node/10435617347"},"aliases":["Digital Realty AMS7"],"admin1Id":"NL-6811986B7118592816602","confidence":78}},{"type":"Feature","id":"osm-node-10537283366","geometry":{"type":"Point","coordinates":[-87.63344,41.872881]},"properties":{"address":{"street":"South Wells Street","houseNumber":"717","city":"Chicago","state":"IL","postcode":"60607","country":null},"category":"data_centre","coordinates":[-87.63344,41.872881],"country":"US","geographyId":"US-66186276B11383391196245","id":"osm-node-10537283366","lastObservedAt":"2026-07-01T15:55:32Z","lifecycle":"operational","locationPrecision":"exact","name":"Netrality","operator":"Netrality","sourceType":"community_mapped","sourceUrl":"https://www.openstreetmap.org/node/10537283366","subtype":"other_data_centre","valueKind":"observed","sourceIds":["openstreetmap-infrastructure"],"externalIds":{"osm":"node/10537283366"},"aliases":["Netrality"],"admin1Id":"US-66186276B11383391196245","confidence":78}},{"type":"Feature","id":"osm-node-10566132363","geometry":{"type":"Point","coordinates":[8.277523,47.064375]},"properties":{"address":{"street":"Täschmattstrasse","houseNumber":"16","city":"Luzern","state":null,"postcode":"6015","country":"CH"},"category":"data_centre","coordinates":[8.277523,47.064375],"country":"CH","geographyId":"CH06","id":"osm-node-10566132363","lastObservedAt":"2026-07-01T15:55:32Z","lifecycle":"operational","locationPrecision":"exact","name":"24 hours fiberwork ag","sourceType":"community_mapped","sourceUrl":"https://www.openstreetmap.org/node/10566132363","startDate":"2018-06-13","subtype":"other_data_centre","valueKind":"observed","website":"https://fiberwork.ch","sourceIds":["openstreetmap-infrastructure"],"externalIds":{"osm":"node/10566132363"},"aliases":["24 hours fiberwork ag"],"admin1Id":"CH-70761945B29073934101403","confidence":78}},{"type":"Feature","id":"osm-node-10567817971","geometry":{"type":"Point","coordinates":[-78.938532,36.003099]},"properties":{"category":"data_centre","coordinates":[-78.938532,36.003099],"country":"US","geographyId":"US-66186276B6801956407400","id":"osm-node-10567817971","lastObservedAt":"2026-07-01T15:55:32Z","lifecycle":"operational","locationPrecision":"exact","name":"Brandaleone Lab for Data and Visualization","operator":"Duke Libraries","sourceType":"community_mapped","sourceUrl":"https://www.openstreetmap.org/node/10567817971","subtype":"other_data_centre","valueKind":"observed","sourceIds":["openstreetmap-infrastructure"],"externalIds":{"osm":"node/10567817971"},"aliases":["Brandaleone Lab for Data and Visualization"],"admin1Id":"US-66186276B6801956407400","confidence":78}},{"type":"Feature","id":"osm-node-10568811919","geometry":{"type":"Point","coordinates":[19.111095,50.821987]},"properties":{"category":"data_centre","coordinates":[19.111095,50.821987],"country":"PL","geographyId":"PL22","id":"osm-node-10568811919","lastObservedAt":"2026-07-01T15:55:32Z","lifecycle":"operational","locationPrecision":"exact","name":"Miejska Sieć Komputerowa CzestMAN","sourceType":"community_mapped","sourceUrl":"https://www.openstreetmap.org/node/10568811919","subtype":"other_data_centre","valueKind":"observed","sourceIds":["openstreetmap-infrastructure"],"externalIds":{"osm":"node/10568811919"},"aliases":["Miejska Sieć Komputerowa CzestMAN"],"admin1Id":"PL-17162690B16879770934003","confidence":78}},{"type":"Feature","id":"osm-node-10607054827","geometry":{"type":"Point","coordinates":[4.250412,50.706803]},"properties":{"category":"data_centre","coordinates":[4.250412,50.706803],"country":"BE","geographyId":"BE24","id":"osm-node-10607054827","lastObservedAt":"2026-07-01T15:55:32Z","lifecycle":"operational","locationPrecision":"exact","name":"FoxNetwork","operator":"Louis Beke","sourceType":"community_mapped","sourceUrl":"https://www.openstreetmap.org/node/10607054827","subtype":"other_data_centre","valueKind":"observed","sourceIds":["openstreetmap-infrastructure"],"externalIds":{"osm":"node/10607054827"},"aliases":["FoxNetwork"],"confidence":78}},{"type":"Feature","id":"osm-node-10648255815","geometry":{"type":"Point","coordinates":[27.696506,64.231635]},"properties":{"category":"data_centre","coordinates":[27.696506,64.231635],"country":"FI","geographyId":"FI1D","id":"osm-node-10648255815","lastObservedAt":"2026-07-01T15:55:32Z","lifecycle":"operational","locationPrecision":"exact","name":"CSC – IT Center for Science","operator":"CSC","sourceType":"community_mapped","sourceUrl":"https://www.openstreetmap.org/node/10648255815","subtype":"other_data_centre","valueKind":"observed","sourceIds":["openstreetmap-infrastructure"],"externalIds":{"osm":"node/10648255815"},"aliases":["CSC – IT Center for Science"],"admin1Id":"FI-49019192B44835655910893","confidence":78}},{"type":"Feature","id":"osm-node-10648294221","geometry":{"type":"Point","coordinates":[27.695611,64.23197]},"properties":{"category":"data_centre","coordinates":[27.695611,64.23197],"country":"FI","geographyId":"FI1D","id":"osm-node-10648294221","lastObservedAt":"2026-07-01T15:55:32Z","lifecycle":"operational","locationPrecision":"exact","name":"LUMI (supercomputer)","operator":"EuroHPC/CSC","sourceType":"community_mapped","sourceUrl":"https://www.openstreetmap.org/node/10648294221","subtype":"other_data_centre","valueKind":"observed","sourceIds":["openstreetmap-infrastructure"],"externalIds":{"osm":"node/10648294221"},"aliases":["LUMI (supercomputer)"],"admin1Id":"FI-49019192B44835655910893","confidence":78}},{"type":"Feature","id":"osm-node-10648552506","geometry":{"type":"Point","coordinates":[-84.310567,35.929513]},"properties":{"category":"data_centre","coordinates":[-84.310567,35.929513],"country":"US","geographyId":"US-66186276B52324970173776","id":"osm-node-10648552506","lastObservedAt":"2026-07-01T15:55:32Z","lifecycle":"operational","locationPrecision":"exact","name":"Frontier (supercomputer)","operator":"Oak Ridge National Laboratory","sourceType":"community_mapped","sourceUrl":"https://www.openstreetmap.org/node/10648552506","subtype":"other_data_centre","valueKind":"observed","sourceIds":["openstreetmap-infrastructure"],"externalIds":{"osm":"node/10648552506"},"aliases":["Frontier (supercomputer)"],"admin1Id":"US-66186276B52324970173776","confidence":78}},{"type":"Feature","id":"osm-node-10648561696","geometry":{"type":"Point","coordinates":[11.259782,44.486329]},"properties":{"category":"data_centre","coordinates":[11.259782,44.486329],"country":"IT","geographyId":"ITH5","id":"osm-node-10648561696","lastObservedAt":"2026-07-01T15:55:32Z","lifecycle":"operational","locationPrecision":"exact","name":"Leonardo (supercomputer)","operator":"CINECA","sourceType":"community_mapped","sourceUrl":"https://www.openstreetmap.org/node/10648561696","subtype":"other_data_centre","valueKind":"observed","sourceIds":["openstreetmap-infrastructure"],"externalIds":{"osm":"node/10648561696"},"aliases":["Leonardo (supercomputer)"],"admin1Id":"IT-72843720B59566147937015","confidence":78}},{"type":"Feature","id":"osm-node-10688935368","geometry":{"type":"Point","coordinates":[8.887552,47.561965]},"properties":{"category":"data_centre","coordinates":[8.887552,47.561965],"country":"CH","geographyId":"CH05","id":"osm-node-10688935368","lastObservedAt":"2026-07-01T15:55:32Z","lifecycle":"operational","locationPrecision":"exact","name":"Datacenter Thurgau","operator":"EKT AG","sourceType":"community_mapped","sourceUrl":"https://www.openstreetmap.org/node/10688935368","subtype":"other_data_centre","valueKind":"observed","website":"https://datacenterthurgau.ch/","sourceIds":["openstreetmap-infrastructure"],"externalIds":{"osm":"node/10688935368"},"aliases":["Datacenter Thurgau"],"admin1Id":"CH-70761945B73326014959541","confidence":78}},{"type":"Feature","id":"osm-node-10749325391","geometry":{"type":"Point","coordinates":[-84.098824,9.931225]},"properties":{"address":{"street":"Avenida 12","houseNumber":null,"city":"San José","state":null,"postcode":null,"country":null},"category":"data_centre","coordinates":[-84.098824,9.931225],"country":"CR","geographyId":"CR-80129987B28144345958142","id":"osm-node-10749325391","lastObservedAt":"2026-07-01T15:55:32Z","lifecycle":"operational","locationPrecision":"exact","name":"Microsoft","operator":"Microsoft","sourceType":"community_mapped","sourceUrl":"https://www.openstreetmap.org/node/10749325391","subtype":"other_data_centre","valueKind":"observed","sourceIds":["openstreetmap-infrastructure"],"externalIds":{"osm":"node/10749325391"},"aliases":["Microsoft"],"admin1Id":"CR-80129987B28144345958142","confidence":78}},{"type":"Feature","id":"osm-node-10750169778","geometry":{"type":"Point","coordinates":[32.425535,-25.975504]},"properties":{"category":"data_centre","coordinates":[32.425535,-25.975504],"country":"MZ","geographyId":"MZ-27363107B47421408423272","id":"osm-node-10750169778","lastObservedAt":"2026-07-01T15:55:32Z","lifecycle":"operational","locationPrecision":"exact","name":"Teja Services","sourceType":"community_mapped","sourceUrl":"https://www.openstreetmap.org/node/10750169778","subtype":"other_data_centre","valueKind":"observed","sourceIds":["openstreetmap-infrastructure"],"externalIds":{"osm":"node/10750169778"},"aliases":["Teja Services"],"admin1Id":"MZ-27363107B47421408423272","confidence":78}},{"type":"Feature","id":"osm-node-10780794741","geometry":{"type":"Point","coordinates":[-122.394,37.779653]},"properties":{"address":{"street":"3rd Street","houseNumber":"630","city":null,"state":"CA","postcode":null,"country":null},"category":"data_centre","coordinates":[-122.394,37.779653],"country":"US","geographyId":"US","id":"osm-node-10780794741","lastObservedAt":"2026-07-01T15:55:32Z","lifecycle":"operational","locationPrecision":"exact","name":"Mapped data centre · OSM 10780794741","operator":"Ntirety","sourceType":"community_mapped","sourceUrl":"https://www.openstreetmap.org/node/10780794741","subtype":"other_data_centre","valueKind":"observed","sourceIds":["openstreetmap-infrastructure"],"externalIds":{"osm":"node/10780794741"},"aliases":["Mapped data centre · OSM 10780794741"],"confidence":78}},{"type":"Feature","id":"osm-node-10786634736","geometry":{"type":"Point","coordinates":[-0.195969,5.551976]},"properties":{"category":"data_centre","coordinates":[-0.195969,5.551976],"country":"GH","geographyId":"GH","id":"osm-node-10786634736","lastObservedAt":"2026-07-01T15:55:32Z","lifecycle":"operational","locationPrecision":"exact","name":"National Data Centre","operator":"Government of Ghana","sourceType":"community_mapped","sourceUrl":"https://www.openstreetmap.org/node/10786634736","subtype":"other_data_centre","valueKind":"observed","sourceIds":["openstreetmap-infrastructure"],"externalIds":{"osm":"node/10786634736"},"aliases":["National Data Centre"],"confidence":78}},{"type":"Feature","id":"osm-node-10796113031","geometry":{"type":"Point","coordinates":[-111.901703,33.627367]},"properties":{"category":"data_centre","coordinates":[-111.901703,33.627367],"country":"US","geographyId":"US-66186276B89395128410123","id":"osm-node-10796113031","lastObservedAt":"2026-07-01T15:55:32Z","lifecycle":"operational","locationPrecision":"exact","name":"VaultLogix","sourceType":"community_mapped","sourceUrl":"https://www.openstreetmap.org/node/10796113031","subtype":"other_data_centre","valueKind":"observed","sourceIds":["openstreetmap-infrastructure"],"externalIds":{"osm":"node/10796113031"},"aliases":["VaultLogix"],"admin1Id":"US-66186276B89395128410123","confidence":78}},{"type":"Feature","id":"osm-node-10796113033","geometry":{"type":"Point","coordinates":[-111.902048,33.627248]},"properties":{"category":"data_centre","coordinates":[-111.902048,33.627248],"country":"US","geographyId":"US-66186276B89395128410123","id":"osm-node-10796113033","lastObservedAt":"2026-07-01T15:55:32Z","lifecycle":"operational","locationPrecision":"exact","name":"Profit Finder Pro Software","sourceType":"community_mapped","sourceUrl":"https://www.openstreetmap.org/node/10796113033","subtype":"other_data_centre","valueKind":"observed","sourceIds":["openstreetmap-infrastructure"],"externalIds":{"osm":"node/10796113033"},"aliases":["Profit Finder Pro Software"],"admin1Id":"US-66186276B89395128410123","confidence":78}},{"type":"Feature","id":"osm-node-10798644674","geometry":{"type":"Point","coordinates":[-111.913983,33.611662]},"properties":{"category":"data_centre","coordinates":[-111.913983,33.611662],"country":"US","geographyId":"US-66186276B89395128410123","id":"osm-node-10798644674","lastObservedAt":"2026-07-01T15:55:32Z","lifecycle":"operational","locationPrecision":"exact","name":"DataPro USA Web Development","sourceType":"community_mapped","sourceUrl":"https://www.openstreetmap.org/node/10798644674","subtype":"other_data_centre","valueKind":"observed","sourceIds":["openstreetmap-infrastructure"],"externalIds":{"osm":"node/10798644674"},"aliases":["DataPro USA Web Development"],"admin1Id":"US-66186276B89395128410123","confidence":78}},{"type":"Feature","id":"osm-node-10852549720","geometry":{"type":"Point","coordinates":[13.787985,43.196864]},"properties":{"address":{"street":"via Abruzzo","houseNumber":"25","city":"Porto San Giorgio","state":null,"postcode":"63822","country":null},"category":"data_centre","coordinates":[13.787985,43.196864],"country":"IT","geographyId":"ITI3","id":"osm-node-10852549720","lastObservedAt":"2026-07-01T15:55:32Z","lifecycle":"operational","locationPrecision":"exact","name":"Studio BETA SRLS","sourceType":"community_mapped","sourceUrl":"https://www.openstreetmap.org/node/10852549720","subtype":"other_data_centre","valueKind":"observed","sourceIds":["openstreetmap-infrastructure"],"externalIds":{"osm":"node/10852549720"},"aliases":["Studio BETA SRLS"],"confidence":78}},{"type":"Feature","id":"osm-node-10853783649","geometry":{"type":"Point","coordinates":[10.903686,48.355006]},"properties":{"category":"data_centre","coordinates":[10.903686,48.355006],"country":"DE","geographyId":"DE27","id":"osm-node-10853783649","lastObservedAt":"2026-07-01T15:55:32Z","lifecycle":"operational","locationPrecision":"exact","name":"Mapped data centre · OSM 10853783649","sourceType":"community_mapped","sourceUrl":"https://www.openstreetmap.org/node/10853783649","subtype":"other_data_centre","valueKind":"observed","website":"https://www.tha.de/Rechenzentrum.html","sourceIds":["openstreetmap-infrastructure"],"externalIds":{"osm":"node/10853783649"},"aliases":["Mapped data centre · OSM 10853783649"],"admin1Id":"DE-10402087B60477050509260","confidence":78}},{"type":"Feature","id":"osm-node-10873403420","geometry":{"type":"Point","coordinates":[113.26792,23.146047]},"properties":{"category":"data_centre","coordinates":[113.26792,23.146047],"country":"CN","geographyId":"CN-43563684B38891657012300","id":"osm-node-10873403420","lastObservedAt":"2026-07-01T15:55:32Z","lifecycle":"operational","locationPrecision":"exact","name":"广州长途电信线路局","sourceType":"community_mapped","sourceUrl":"https://www.openstreetmap.org/node/10873403420","subtype":"other_data_centre","valueKind":"observed","sourceIds":["openstreetmap-infrastructure"],"externalIds":{"osm":"node/10873403420"},"aliases":["广州长途电信线路局"],"admin1Id":"CN-43563684B38891657012300","confidence":78}},{"type":"Feature","id":"osm-node-10880725408","geometry":{"type":"Point","coordinates":[-122.043738,37.971081]},"properties":{"address":{"street":"Gateway Boulevard","houseNumber":"1855","city":"Concord","state":"CA","postcode":"94520","country":null},"category":"data_centre","coordinates":[-122.043738,37.971081],"country":"US","geographyId":"US-66186276B43071933723331","id":"osm-node-10880725408","lastObservedAt":"2026-07-01T15:55:32Z","lifecycle":"operational","locationPrecision":"exact","name":"e360","sourceType":"community_mapped","sourceUrl":"https://www.openstreetmap.org/node/10880725408","subtype":"other_data_centre","valueKind":"observed","website":"https://www.e360.com/","sourceIds":["openstreetmap-infrastructure"],"externalIds":{"osm":"node/10880725408"},"aliases":["e360"],"admin1Id":"US-66186276B43071933723331","confidence":78}},{"type":"Feature","id":"osm-node-10880784344","geometry":{"type":"Point","coordinates":[51.47622,51.283834]},"properties":{"category":"data_centre","coordinates":[51.47622,51.283834],"country":"KZ","geographyId":"KZ-16772668B81356436661636","id":"osm-node-10880784344","lastObservedAt":"2026-07-01T15:55:32Z","lifecycle":"operational","locationPrecision":"exact","name":"Data Center Uralsk","sourceType":"community_mapped","sourceUrl":"https://www.openstreetmap.org/node/10880784344","subtype":"other_data_centre","valueKind":"observed","sourceIds":["openstreetmap-infrastructure"],"externalIds":{"osm":"node/10880784344"},"aliases":["Data Center Uralsk"],"admin1Id":"KZ-16772668B81356436661636","confidence":78}},{"type":"Feature","id":"osm-node-10910879064","geometry":{"type":"Point","coordinates":[-87.618307,41.853351]},"properties":{"address":{"street":"East Cermak Road","houseNumber":"350","city":"Chicago","state":"IL","postcode":"60616","country":null},"category":"data_centre","coordinates":[-87.618307,41.853351],"country":"US","facilityRef":"ORD10","geographyId":"US-66186276B11383391196245","id":"osm-node-10910879064","lastObservedAt":"2026-07-01T15:55:32Z","lifecycle":"operational","locationPrecision":"exact","name":"Digital Realty ORD10","operator":"Digital Realty","sourceType":"community_mapped","sourceUrl":"https://www.openstreetmap.org/node/10910879064","subtype":"other_data_centre","valueKind":"observed","sourceIds":["openstreetmap-infrastructure"],"externalIds":{"osm":"node/10910879064"},"aliases":["Digital Realty ORD10"],"admin1Id":"US-66186276B11383391196245","confidence":78}},{"type":"Feature","id":"osm-node-10910879065","geometry":{"type":"Point","coordinates":[-87.618607,41.853383]},"properties":{"address":{"street":"East Cermak Road","houseNumber":"350","city":"Chicago","state":"IL","postcode":"60616","country":null},"category":"data_centre","coordinates":[-87.618607,41.853383],"country":"US","facilityRef":"ORD1","geographyId":"US-66186276B11383391196245","id":"osm-node-10910879065","lastObservedAt":"2026-07-01T15:55:32Z","lifecycle":"operational","locationPrecision":"exact","name":"Centersquare Chicago Data Center - ORD1","operator":"Centersquare","sourceType":"community_mapped","sourceUrl":"https://www.openstreetmap.org/node/10910879065","subtype":"other_data_centre","valueKind":"observed","website":"https://centersquaredc.com/data-centers/chicago#chicagocermak-ord1","sourceIds":["openstreetmap-infrastructure"],"externalIds":{"osm":"node/10910879065"},"aliases":["Centersquare Chicago Data Center - ORD1"],"admin1Id":"US-66186276B11383391196245","confidence":78}},{"type":"Feature","id":"osm-node-10914062309","geometry":{"type":"Point","coordinates":[35.571249,33.884864]},"properties":{"category":"data_centre","coordinates":[35.571249,33.884864],"country":"LB","geographyId":"LB-68408151B78911970066467","id":"osm-node-10914062309","lastObservedAt":"2026-07-01T15:55:32Z","lifecycle":"operational","locationPrecision":"exact","name":"God Of Mining","sourceType":"community_mapped","sourceUrl":"https://www.openstreetmap.org/node/10914062309","subtype":"other_data_centre","valueKind":"observed","website":"https://www.godofmining.net/","sourceIds":["openstreetmap-infrastructure"],"externalIds":{"osm":"node/10914062309"},"aliases":["God Of Mining"],"admin1Id":"LB-68408151B78911970066467","confidence":78}},{"type":"Feature","id":"osm-node-10938672218","geometry":{"type":"Point","coordinates":[-111.884346,33.634484]},"properties":{"category":"data_centre","coordinates":[-111.884346,33.634484],"country":"US","geographyId":"US-66186276B89395128410123","id":"osm-node-10938672218","lastObservedAt":"2026-07-01T15:55:32Z","lifecycle":"operational","locationPrecision":"exact","name":"K-Motion Interactive","sourceType":"community_mapped","sourceUrl":"https://www.openstreetmap.org/node/10938672218","subtype":"other_data_centre","valueKind":"observed","sourceIds":["openstreetmap-infrastructure"],"externalIds":{"osm":"node/10938672218"},"aliases":["K-Motion Interactive"],"admin1Id":"US-66186276B89395128410123","confidence":78}},{"type":"Feature","id":"osm-node-10939660647","geometry":{"type":"Point","coordinates":[101.729392,3.174386]},"properties":{"category":"data_centre","coordinates":[101.729392,3.174386],"country":"MY","geographyId":"MY-15666254B97003483933575","id":"osm-node-10939660647","lastObservedAt":"2026-07-01T15:55:32Z","lifecycle":"operational","locationPrecision":"exact","name":"MAF War Gaming Simulation Center","sourceType":"community_mapped","sourceUrl":"https://www.openstreetmap.org/node/10939660647","subtype":"other_data_centre","valueKind":"observed","sourceIds":["openstreetmap-infrastructure"],"externalIds":{"osm":"node/10939660647"},"aliases":["MAF War Gaming Simulation Center"],"admin1Id":"MY-15666254B97003483933575","confidence":78}},{"type":"Feature","id":"osm-node-10945121336","geometry":{"type":"Point","coordinates":[-87.635938,41.880527]},"properties":{"category":"data_centre","coordinates":[-87.635938,41.880527],"country":"US","geographyId":"US-66186276B11383391196245","id":"osm-node-10945121336","lastObservedAt":"2026-07-01T15:55:32Z","lifecycle":"operational","locationPrecision":"exact","name":"West Monroe","sourceType":"community_mapped","sourceUrl":"https://www.openstreetmap.org/node/10945121336","subtype":"other_data_centre","valueKind":"observed","sourceIds":["openstreetmap-infrastructure"],"externalIds":{"osm":"node/10945121336"},"aliases":["West Monroe"],"admin1Id":"US-66186276B11383391196245","confidence":78}},{"type":"Feature","id":"osm-node-10993896233","geometry":{"type":"Point","coordinates":[118.32513,33.951096]},"properties":{"category":"data_centre","coordinates":[118.32513,33.951096],"country":"CN","geographyId":"CN-43563684B64367354813847","id":"osm-node-10993896233","lastObservedAt":"2026-07-01T15:55:32Z","lifecycle":"operational","locationPrecision":"exact","name":"中国电信宿迁分公司云计算中心","sourceType":"community_mapped","sourceUrl":"https://www.openstreetmap.org/node/10993896233","subtype":"other_data_centre","valueKind":"observed","sourceIds":["openstreetmap-infrastructure"],"externalIds":{"osm":"node/10993896233"},"aliases":["中国电信宿迁分公司云计算中心"],"admin1Id":"CN-43563684B64367354813847","confidence":78}},{"type":"Feature","id":"osm-node-11005419206","geometry":{"type":"Point","coordinates":[14.771565,41.121981]},"properties":{"category":"data_centre","coordinates":[14.771565,41.121981],"country":"IT","geographyId":"ITF3","id":"osm-node-11005419206","lastObservedAt":"2026-07-01T15:55:32Z","lifecycle":"operational","locationPrecision":"exact","name":"Arpac","operator":"Arpac","sourceType":"community_mapped","sourceUrl":"https://www.openstreetmap.org/node/11005419206","subtype":"other_data_centre","valueKind":"observed","sourceIds":["openstreetmap-infrastructure"],"externalIds":{"osm":"node/11005419206"},"aliases":["Arpac"],"admin1Id":"IT-72843720B88210905209841","confidence":78}},{"type":"Feature","id":"osm-node-11014689116","geometry":{"type":"Point","coordinates":[13.373836,52.432618]},"properties":{"address":{"street":"Kitzingstraße","houseNumber":"15","city":"Berlin","state":null,"postcode":"12277","country":null},"category":"data_centre","coordinates":[13.373836,52.432618],"country":"DE","geographyId":"DE30","id":"osm-node-11014689116","lastObservedAt":"2026-07-01T15:55:32Z","lifecycle":"operational","locationPrecision":"exact","name":"CarrierColo Berlin K","operator":"IPB","sourceType":"community_mapped","sourceUrl":"https://www.openstreetmap.org/node/11014689116","startDate":"2010-12","subtype":"other_data_centre","valueKind":"observed","website":"https://www.carrier-colo.com/de/datacenter/location-k.html","sourceIds":["openstreetmap-infrastructure"],"externalIds":{"osm":"node/11014689116"},"aliases":["CarrierColo Berlin K"],"admin1Id":"DE-10402087B20892132820961","confidence":78}},{"type":"Feature","id":"osm-node-11018926315","geometry":{"type":"Point","coordinates":[-111.896099,33.644666]},"properties":{"category":"data_centre","coordinates":[-111.896099,33.644666],"country":"US","geographyId":"US-66186276B89395128410123","id":"osm-node-11018926315","lastObservedAt":"2026-07-01T15:55:32Z","lifecycle":"operational","locationPrecision":"exact","name":"Iron Mountain Data Centers AZS-1","sourceType":"community_mapped","sourceUrl":"https://www.openstreetmap.org/node/11018926315","subtype":"other_data_centre","valueKind":"observed","sourceIds":["openstreetmap-infrastructure"],"externalIds":{"osm":"node/11018926315"},"aliases":["Iron Mountain Data Centers AZS-1"],"admin1Id":"US-66186276B89395128410123","confidence":78}},{"type":"Feature","id":"osm-node-11057872687","geometry":{"type":"Point","coordinates":[153.033383,-27.453995]},"properties":{"category":"data_centre","coordinates":[153.033383,-27.453995],"country":"AU","geographyId":"AU","id":"osm-node-11057872687","lastObservedAt":"2026-07-01T15:55:32Z","lifecycle":"operational","locationPrecision":"exact","name":"NextDC","sourceType":"community_mapped","sourceUrl":"https://www.openstreetmap.org/node/11057872687","subtype":"other_data_centre","valueKind":"observed","sourceIds":["openstreetmap-infrastructure"],"externalIds":{"osm":"node/11057872687"},"aliases":["NextDC"],"confidence":78}},{"type":"Feature","id":"osm-node-11064014638","geometry":{"type":"Point","coordinates":[-1.485082,53.380892]},"properties":{"category":"data_centre","coordinates":[-1.485082,53.380892],"country":"GB","geographyId":"GB-14339913B95766344400054","id":"osm-node-11064014638","lastObservedAt":"2026-07-01T15:55:32Z","lifecycle":"operational","locationPrecision":"exact","name":"UoS IT Services","sourceType":"community_mapped","sourceUrl":"https://www.openstreetmap.org/node/11064014638","subtype":"other_data_centre","valueKind":"observed","sourceIds":["openstreetmap-infrastructure"],"externalIds":{"osm":"node/11064014638"},"aliases":["UoS IT Services"],"admin1Id":"GB-14339913B95766344400054","confidence":78}},{"type":"Feature","id":"osm-node-11073240773","geometry":{"type":"Point","coordinates":[119.12525,36.669845]},"properties":{"category":"data_centre","coordinates":[119.12525,36.669845],"country":"CN","geographyId":"CN-43563684B58995436924100","id":"osm-node-11073240773","lastObservedAt":"2026-07-01T15:55:32Z","lifecycle":"operational","locationPrecision":"exact","name":"中国联通奎文云计算中心","sourceType":"community_mapped","sourceUrl":"https://www.openstreetmap.org/node/11073240773","subtype":"other_data_centre","valueKind":"observed","sourceIds":["openstreetmap-infrastructure"],"externalIds":{"osm":"node/11073240773"},"aliases":["中国联通奎文云计算中心"],"admin1Id":"CN-43563684B58995436924100","confidence":78}},{"type":"Feature","id":"osm-node-11085093688","geometry":{"type":"Point","coordinates":[17.093694,48.121258]},"properties":{"category":"data_centre","coordinates":[17.093694,48.121258],"country":"SK","geographyId":"SK01","id":"osm-node-11085093688","lastObservedAt":"2026-07-01T15:55:32Z","lifecycle":"operational","locationPrecision":"exact","name":"SWAN Datacentrum","operator":"SWAN","sourceType":"community_mapped","sourceUrl":"https://www.openstreetmap.org/node/11085093688","subtype":"other_data_centre","valueKind":"observed","website":"https://www.swan.sk","sourceIds":["openstreetmap-infrastructure"],"externalIds":{"osm":"node/11085093688"},"aliases":["SWAN Datacentrum"],"admin1Id":"SK-25762395B46801803338249","confidence":78}},{"type":"Feature","id":"osm-node-11097428175","geometry":{"type":"Point","coordinates":[8.888471,47.571275]},"properties":{"category":"data_centre","coordinates":[8.888471,47.571275],"country":"CH","geographyId":"CH05","id":"osm-node-11097428175","lastObservedAt":"2026-07-01T15:55:32Z","lifecycle":"operational","locationPrecision":"exact","name":"RZ CAMPUS","operator":"Bund","sourceType":"community_mapped","sourceUrl":"https://www.openstreetmap.org/node/11097428175","subtype":"other_data_centre","valueKind":"observed","sourceIds":["openstreetmap-infrastructure"],"externalIds":{"osm":"node/11097428175"},"aliases":["RZ CAMPUS"],"admin1Id":"CH-70761945B73326014959541","confidence":78}},{"type":"Feature","id":"osm-node-11098469355","geometry":{"type":"Point","coordinates":[-87.631466,41.87594]},"properties":{"address":{"street":"South LaSalle Street","houseNumber":"427","city":"Chicago","state":"IL","postcode":"60605","country":null},"category":"data_centre","coordinates":[-87.631466,41.87594],"country":"US","facilityRef":"CH1","geographyId":"US-66186276B11383391196245","id":"osm-node-11098469355","lastObservedAt":"2026-07-01T15:55:32Z","lifecycle":"operational","locationPrecision":"exact","name":"CoreSite Chicago Data Center (CH1)","operator":"CoreSite","sourceType":"community_mapped","sourceUrl":"https://www.openstreetmap.org/node/11098469355","subtype":"other_data_centre","valueKind":"observed","website":"https://www.coresite.com/data-center/ch1-chicago-il","sourceIds":["openstreetmap-infrastructure"],"externalIds":{"osm":"node/11098469355"},"aliases":["CoreSite Chicago Data Center (CH1)"],"admin1Id":"US-66186276B11383391196245","confidence":78}},{"type":"Feature","id":"osm-node-11113161710","geometry":{"type":"Point","coordinates":[-112.111714,33.664745]},"properties":{"category":"data_centre","coordinates":[-112.111714,33.664745],"country":"US","geographyId":"US-66186276B89395128410123","id":"osm-node-11113161710","lastObservedAt":"2026-07-01T15:55:32Z","lifecycle":"operational","locationPrecision":"exact","name":"Accelera Data Systems","sourceType":"community_mapped","sourceUrl":"https://www.openstreetmap.org/node/11113161710","subtype":"other_data_centre","valueKind":"observed","sourceIds":["openstreetmap-infrastructure"],"externalIds":{"osm":"node/11113161710"},"aliases":["Accelera Data Systems"],"admin1Id":"US-66186276B89395128410123","confidence":78}},{"type":"Feature","id":"osm-node-11114729904","geometry":{"type":"Point","coordinates":[10.160728,36.69821]},"properties":{"category":"data_centre","coordinates":[10.160728,36.69821],"country":"TN","geographyId":"TN-13205935B75715054307065","id":"osm-node-11114729904","lastObservedAt":"2026-07-01T15:55:32Z","lifecycle":"operational","locationPrecision":"exact","name":"الهيكل الخاص الهدى لتقديم الدروس الخصوصية","sourceType":"community_mapped","sourceUrl":"https://www.openstreetmap.org/node/11114729904","subtype":"other_data_centre","valueKind":"observed","sourceIds":["openstreetmap-infrastructure"],"externalIds":{"osm":"node/11114729904"},"aliases":["الهيكل الخاص الهدى لتقديم الدروس الخصوصية"],"admin1Id":"TN-13205935B75715054307065","confidence":78}},{"type":"Feature","id":"osm-node-11119659852","geometry":{"type":"Point","coordinates":[35.137511,49.454774]},"properties":{"address":{"street":"вулиця Полтавський Шлях","houseNumber":"44-А","city":null,"state":null,"postcode":"39500","country":null},"category":"data_centre","coordinates":[35.137511,49.454774],"country":"UA","geographyId":"UA-14850775B18105645488844","id":"osm-node-11119659852","lastObservedAt":"2026-07-01T15:55:32Z","lifecycle":"operational","locationPrecision":"exact","name":"AirNet","operator":"ТОВ \"АІРНЕТ\"","sourceType":"community_mapped","sourceUrl":"https://www.openstreetmap.org/node/11119659852","subtype":"other_data_centre","valueKind":"observed","sourceIds":["openstreetmap-infrastructure"],"externalIds":{"osm":"node/11119659852"},"aliases":["AirNet"],"admin1Id":"UA-14850775B18105645488844","confidence":78}},{"type":"Feature","id":"osm-node-11161995738","geometry":{"type":"Point","coordinates":[-3.037693,51.555607]},"properties":{"address":{"street":null,"houseNumber":null,"city":"Newport","state":null,"postcode":"NP10 8BE","country":null},"category":"data_centre","coordinates":[-3.037693,51.555607],"country":"GB","geographyId":"GB-14339913B89763821047858","id":"osm-node-11161995738","lastObservedAt":"2026-07-01T15:55:32Z","lifecycle":"operational","locationPrecision":"exact","name":"Centerprise International Newport","sourceType":"community_mapped","sourceUrl":"https://www.openstreetmap.org/node/11161995738","subtype":"other_data_centre","valueKind":"observed","website":"https://www.centerprisecloud.co.uk","sourceIds":["openstreetmap-infrastructure"],"externalIds":{"osm":"node/11161995738"},"aliases":["Centerprise International Newport"],"admin1Id":"GB-14339913B89763821047858","confidence":78}},{"type":"Feature","id":"osm-node-11162004018","geometry":{"type":"Point","coordinates":[-3.229003,51.629334]},"properties":{"address":{"street":"Alder Avenue","houseNumber":"9","city":"Ystrad Mynach","state":null,"postcode":"CF82 7TW","country":null},"category":"data_centre","coordinates":[-3.229003,51.629334],"country":"GB","geographyId":"GB-14339913B89763821047858","id":"osm-node-11162004018","lastObservedAt":"2026-07-01T15:55:32Z","lifecycle":"operational","locationPrecision":"exact","name":"Centerprise International (Distribution)","operator":"Centerprise International","sourceType":"community_mapped","sourceUrl":"https://www.openstreetmap.org/node/11162004018","subtype":"other_data_centre","valueKind":"observed","website":"https://www.centerprise.co.uk/contact-us","sourceIds":["openstreetmap-infrastructure"],"externalIds":{"osm":"node/11162004018"},"aliases":["Centerprise International (Distribution)"],"admin1Id":"GB-14339913B89763821047858","confidence":78}},{"type":"Feature","id":"osm-node-11167049138","geometry":{"type":"Point","coordinates":[-1.479385,53.375805]},"properties":{"category":"data_centre","coordinates":[-1.479385,53.375805],"country":"GB","geographyId":"GB-14339913B95766344400054","id":"osm-node-11167049138","lastObservedAt":"2026-07-01T15:55:32Z","lifecycle":"operational","locationPrecision":"exact","name":"Hive IT","sourceType":"community_mapped","sourceUrl":"https://www.openstreetmap.org/node/11167049138","subtype":"other_data_centre","valueKind":"observed","sourceIds":["openstreetmap-infrastructure"],"externalIds":{"osm":"node/11167049138"},"aliases":["Hive IT"],"admin1Id":"GB-14339913B95766344400054","confidence":78}},{"type":"Feature","id":"osm-node-11167641842","geometry":{"type":"Point","coordinates":[-76.81155,39.427318]},"properties":{"address":{"street":"Red Run Boulevard","houseNumber":"11155","city":"Owings Mills","state":"MD","postcode":"21117","country":null},"category":"data_centre","coordinates":[-76.81155,39.427318],"country":"US","geographyId":"US-66186276B21291522594454","id":"osm-node-11167641842","lastObservedAt":"2026-07-01T15:55:32Z","lifecycle":"operational","locationPrecision":"exact","name":"Expedient Owings Mills","operator":"Expedient","sourceType":"community_mapped","sourceUrl":"https://www.openstreetmap.org/node/11167641842","subtype":"other_data_centre","valueKind":"observed","website":"https://www.expedient.com/data-centers/baltimore/","sourceIds":["openstreetmap-infrastructure"],"externalIds":{"osm":"node/11167641842"},"aliases":["Expedient Owings Mills"],"admin1Id":"US-66186276B21291522594454","confidence":78}},{"type":"Feature","id":"osm-node-11168593074","geometry":{"type":"Point","coordinates":[-76.620402,39.291759]},"properties":{"category":"data_centre","coordinates":[-76.620402,39.291759],"country":"US","geographyId":"US-66186276B21291522594454","id":"osm-node-11168593074","lastObservedAt":"2026-07-01T15:55:32Z","lifecycle":"operational","locationPrecision":"exact","name":"Lumen Baltimore","operator":"Lumen Technologies","sourceType":"community_mapped","sourceUrl":"https://www.openstreetmap.org/node/11168593074","subtype":"other_data_centre","valueKind":"observed","sourceIds":["openstreetmap-infrastructure"],"externalIds":{"osm":"node/11168593074"},"aliases":["Lumen Baltimore"],"admin1Id":"US-66186276B21291522594454","confidence":78}},{"type":"Feature","id":"osm-node-11168593094","geometry":{"type":"Point","coordinates":[-76.591671,39.274655]},"properties":{"category":"data_centre","coordinates":[-76.591671,39.274655],"country":"US","geographyId":"US-66186276B21291522594454","id":"osm-node-11168593094","lastObservedAt":"2026-07-01T15:55:32Z","lifecycle":"operational","locationPrecision":"exact","name":"Expedient Tidepoint","operator":"Expedient","sourceType":"community_mapped","sourceUrl":"https://www.openstreetmap.org/node/11168593094","subtype":"other_data_centre","valueKind":"observed","website":"https://www.expedient.com/data-centers/baltimore/","sourceIds":["openstreetmap-infrastructure"],"externalIds":{"osm":"node/11168593094"},"aliases":["Expedient Tidepoint"],"admin1Id":"US-66186276B21291522594454","confidence":78}},{"type":"Feature","id":"osm-node-11175817920","geometry":{"type":"Point","coordinates":[-38.218119,-11.305833]},"properties":{"category":"data_centre","coordinates":[-38.218119,-11.305833],"country":"BR","geographyId":"BR-14911670B19428866735507","id":"osm-node-11175817920","lastObservedAt":"2026-07-01T15:55:32Z","lifecycle":"operational","locationPrecision":"exact","name":"Dinfo (Provedor De Internet)","sourceType":"community_mapped","sourceUrl":"https://www.openstreetmap.org/node/11175817920","subtype":"other_data_centre","valueKind":"observed","sourceIds":["openstreetmap-infrastructure"],"externalIds":{"osm":"node/11175817920"},"aliases":["Dinfo (Provedor De Internet)"],"admin1Id":"BR-14911670B19428866735507","confidence":78}},{"type":"Feature","id":"osm-node-11175817921","geometry":{"type":"Point","coordinates":[-38.216586,-11.303791]},"properties":{"category":"data_centre","coordinates":[-38.216586,-11.303791],"country":"BR","geographyId":"BR-14911670B19428866735507","id":"osm-node-11175817921","lastObservedAt":"2026-07-01T15:55:32Z","lifecycle":"operational","locationPrecision":"exact","name":"Net Wireless","sourceType":"community_mapped","sourceUrl":"https://www.openstreetmap.org/node/11175817921","subtype":"other_data_centre","valueKind":"observed","sourceIds":["openstreetmap-infrastructure"],"externalIds":{"osm":"node/11175817921"},"aliases":["Net Wireless"],"admin1Id":"BR-14911670B19428866735507","confidence":78}},{"type":"Feature","id":"osm-node-11196801643","geometry":{"type":"Point","coordinates":[-73.520165,45.522956]},"properties":{"address":{"street":"Rue Saint-Charles Ouest","houseNumber":"1225","city":"Longueuil","state":null,"postcode":"J4K 1A7","country":null},"category":"data_centre","coordinates":[-73.520165,45.522956],"country":"CA","geographyId":"CA-82249235B52639524229375","id":"osm-node-11196801643","lastObservedAt":"2026-07-01T15:55:32Z","lifecycle":"operational","locationPrecision":"exact","name":"Colo RIve-Sud","sourceType":"community_mapped","sourceUrl":"https://www.openstreetmap.org/node/11196801643","subtype":"other_data_centre","valueKind":"observed","sourceIds":["openstreetmap-infrastructure"],"externalIds":{"osm":"node/11196801643"},"aliases":["Colo RIve-Sud"],"admin1Id":"CA-82249235B52639524229375","confidence":78}},{"type":"Feature","id":"osm-node-11197263596","geometry":{"type":"Point","coordinates":[4.942595,52.299775]},"properties":{"address":{"street":"Luttenbergweg","houseNumber":"4","city":"Amsterdam","state":null,"postcode":"1101EC","country":"NL"},"category":"data_centre","coordinates":[4.942595,52.299775],"country":"NL","facilityRef":"AM1","geographyId":"NL32","id":"osm-node-11197263596","lastObservedAt":"2026-07-01T15:55:32Z","lifecycle":"operational","locationPrecision":"exact","name":"Equinix AM1","operator":"Equinix","sourceType":"community_mapped","sourceUrl":"https://www.openstreetmap.org/node/11197263596","subtype":"other_data_centre","valueKind":"observed","sourceIds":["openstreetmap-infrastructure"],"externalIds":{"osm":"node/11197263596"},"aliases":["Equinix AM1"],"admin1Id":"NL-6811986B7118592816602","confidence":78}},{"type":"Feature","id":"osm-node-11209760563","geometry":{"type":"Point","coordinates":[3.145635,50.639928]},"properties":{"category":"data_centre","coordinates":[3.145635,50.639928],"country":"FR","geographyId":"FRE1","id":"osm-node-11209760563","lastObservedAt":"2026-07-01T15:55:32Z","lifecycle":"operational","locationPrecision":"exact","name":"Mapped data centre · OSM 11209760563","operator":"Ate","sourceType":"community_mapped","sourceUrl":"https://www.openstreetmap.org/node/11209760563","subtype":"other_data_centre","valueKind":"observed","sourceIds":["openstreetmap-infrastructure"],"externalIds":{"osm":"node/11209760563"},"aliases":["Mapped data centre · OSM 11209760563"],"admin1Id":"FR-19338628B36302232233914","confidence":78}},{"type":"Feature","id":"osm-node-11210951272","geometry":{"type":"Point","coordinates":[76.545962,18.408392]},"properties":{"category":"data_centre","coordinates":[76.545962,18.408392],"country":"IN","geographyId":"IN-1811400B15614733245507","id":"osm-node-11210951272","lastObservedAt":"2026-07-01T15:55:32Z","lifecycle":"operational","locationPrecision":"exact","name":"Netizens Digital Zone","sourceType":"community_mapped","sourceUrl":"https://www.openstreetmap.org/node/11210951272","subtype":"other_data_centre","valueKind":"observed","sourceIds":["openstreetmap-infrastructure"],"externalIds":{"osm":"node/11210951272"},"aliases":["Netizens Digital Zone"],"admin1Id":"IN-1811400B15614733245507","confidence":78}},{"type":"Feature","id":"osm-node-11221719097","geometry":{"type":"Point","coordinates":[121.495372,31.239148]},"properties":{"category":"data_centre","coordinates":[121.495372,31.239148],"country":"CN","geographyId":"CN-43563684B32591653033375","id":"osm-node-11221719097","lastObservedAt":"2026-07-01T15:55:32Z","lifecycle":"operational","locationPrecision":"exact","name":"Microsoft","operator":"Microsoft","sourceType":"community_mapped","sourceUrl":"https://www.openstreetmap.org/node/11221719097","subtype":"other_data_centre","valueKind":"observed","sourceIds":["openstreetmap-infrastructure"],"externalIds":{"osm":"node/11221719097"},"aliases":["Microsoft"],"admin1Id":"CN-43563684B32591653033375","confidence":78}},{"type":"Feature","id":"osm-node-11224729504","geometry":{"type":"Point","coordinates":[29.022141,40.209534]},"properties":{"category":"data_centre","coordinates":[29.022141,40.209534],"country":"TR","geographyId":"TR41","id":"osm-node-11224729504","lastObservedAt":"2026-07-01T15:55:32Z","lifecycle":"operational","locationPrecision":"exact","name":"Medyabim Datacenter","sourceType":"community_mapped","sourceUrl":"https://www.openstreetmap.org/node/11224729504","subtype":"other_data_centre","valueKind":"observed","sourceIds":["openstreetmap-infrastructure"],"externalIds":{"osm":"node/11224729504"},"aliases":["Medyabim Datacenter"],"admin1Id":"TR-25984515B5155931768473","confidence":78}},{"type":"Feature","id":"osm-node-11230512768","geometry":{"type":"Point","coordinates":[117.307046,38.997567]},"properties":{"category":"data_centre","coordinates":[117.307046,38.997567],"country":"CN","geographyId":"CN-43563684B84701301190484","id":"osm-node-11230512768","lastObservedAt":"2026-07-01T15:55:32Z","lifecycle":"operational","locationPrecision":"exact","name":"Mapped data centre · OSM 11230512768","sourceType":"community_mapped","sourceUrl":"https://www.openstreetmap.org/node/11230512768","subtype":"other_data_centre","valueKind":"observed","sourceIds":["openstreetmap-infrastructure"],"externalIds":{"osm":"node/11230512768"},"aliases":["Mapped data centre · OSM 11230512768"],"admin1Id":"CN-43563684B84701301190484","confidence":78}},{"type":"Feature","id":"osm-node-11232265750","geometry":{"type":"Point","coordinates":[25.7599,46.957367]},"properties":{"category":"data_centre","coordinates":[25.7599,46.957367],"country":"RO","geographyId":"RO12","id":"osm-node-11232265750","lastObservedAt":"2026-07-01T15:55:32Z","lifecycle":"operational","locationPrecision":"exact","name":"Mapped data centre · OSM 11232265750","sourceType":"community_mapped","sourceUrl":"https://www.openstreetmap.org/node/11232265750","subtype":"other_data_centre","valueKind":"observed","sourceIds":["openstreetmap-infrastructure"],"externalIds":{"osm":"node/11232265750"},"aliases":["Mapped data centre · OSM 11232265750"],"admin1Id":"RO-36066543B14518908529982","confidence":78}},{"type":"Feature","id":"osm-node-11274525973","geometry":{"type":"Point","coordinates":[51.563831,35.750821]},"properties":{"category":"data_centre","coordinates":[51.563831,35.750821],"country":"IR","geographyId":"IR-17685810B50760377364469","id":"osm-node-11274525973","lastObservedAt":"2026-07-01T15:55:32Z","lifecycle":"operational","locationPrecision":"exact","name":"مرکز کامپیوتر پردیس رضایی‌نژاد","operator":"K. N. Toosi University of Technology","sourceType":"community_mapped","sourceUrl":"https://www.openstreetmap.org/node/11274525973","subtype":"other_data_centre","valueKind":"observed","sourceIds":["openstreetmap-infrastructure"],"externalIds":{"osm":"node/11274525973"},"aliases":["مرکز کامپیوتر پردیس رضایی‌نژاد"],"admin1Id":"IR-17685810B50760377364469","confidence":78}},{"type":"Feature","id":"osm-node-11278586220","geometry":{"type":"Point","coordinates":[-70.656155,-33.444186]},"properties":{"address":{"street":"Pasaje Nueva Amunátegui","houseNumber":"26","city":null,"state":null,"postcode":null,"country":null},"category":"data_centre","coordinates":[-70.656155,-33.444186],"country":"CL","geographyId":"CL-47653553B78904739401519","id":"osm-node-11278586220","lastObservedAt":"2026-07-01T15:55:32Z","lifecycle":"operational","locationPrecision":"exact","name":"Equinix Data Center - ST3","operator":"Equinix","sourceType":"community_mapped","sourceUrl":"https://www.openstreetmap.org/node/11278586220","subtype":"other_data_centre","valueKind":"observed","website":"https://www.equinix.lat/","sourceIds":["openstreetmap-infrastructure"],"externalIds":{"osm":"node/11278586220"},"aliases":["Equinix Data Center - ST3"],"admin1Id":"CL-47653553B78904739401519","confidence":78}},{"type":"Feature","id":"osm-node-11280595231","geometry":{"type":"Point","coordinates":[-70.600067,-33.418763]},"properties":{"address":{"street":"El Bosque Central","houseNumber":"90","city":null,"state":null,"postcode":null,"country":null},"category":"data_centre","coordinates":[-70.600067,-33.418763],"country":"CL","geographyId":"CL-47653553B78904739401519","id":"osm-node-11280595231","lastObservedAt":"2026-07-01T15:55:32Z","lifecycle":"operational","locationPrecision":"exact","name":"Data Center IFX Networks","operator":"IFX Networks","sourceType":"community_mapped","sourceUrl":"https://www.openstreetmap.org/node/11280595231","subtype":"other_data_centre","valueKind":"observed","website":"https://ifxnetworks.com/","sourceIds":["openstreetmap-infrastructure"],"externalIds":{"osm":"node/11280595231"},"aliases":["Data Center IFX Networks"],"admin1Id":"CL-47653553B78904739401519","confidence":78}},{"type":"Feature","id":"osm-node-11282993748","geometry":{"type":"Point","coordinates":[-2.874273,43.242036]},"properties":{"address":{"street":null,"houseNumber":"1","city":"Galdakao","state":null,"postcode":"48960","country":null},"category":"data_centre","coordinates":[-2.874273,43.242036],"country":"ES","geographyId":"ES21","id":"osm-node-11282993748","lastObservedAt":"2026-07-01T15:55:32Z","lifecycle":"operational","locationPrecision":"exact","name":"Mozoilo AJVP","operator":"Mozoilo","sourceType":"community_mapped","sourceUrl":"https://www.openstreetmap.org/node/11282993748","subtype":"other_data_centre","valueKind":"observed","sourceIds":["openstreetmap-infrastructure"],"externalIds":{"osm":"node/11282993748"},"aliases":["Mozoilo AJVP"],"admin1Id":"ES-25490228B56567998760255","confidence":78}},{"type":"Feature","id":"osm-node-11368507133","geometry":{"type":"Point","coordinates":[30.328231,59.97887]},"properties":{"category":"data_centre","coordinates":[30.328231,59.97887],"country":"RU","geographyId":"RU-28173009B8796515134902","id":"osm-node-11368507133","lastObservedAt":"2026-07-01T15:55:32Z","lifecycle":"operational","locationPrecision":"exact","name":"DataCenter Three Seven","sourceType":"community_mapped","sourceUrl":"https://www.openstreetmap.org/node/11368507133","subtype":"other_data_centre","valueKind":"observed","website":"https://bs777.ru","sourceIds":["openstreetmap-infrastructure"],"externalIds":{"osm":"node/11368507133"},"aliases":["DataCenter Three Seven"],"admin1Id":"RU-28173009B8796515134902","confidence":78}},{"type":"Feature","id":"osm-node-11374310203","geometry":{"type":"Point","coordinates":[166.916248,-0.54749]},"properties":{"category":"data_centre","coordinates":[166.916248,-0.54749],"country":"NR","geographyId":"NR","id":"osm-node-11374310203","lastObservedAt":"2026-07-01T15:55:32Z","lifecycle":"operational","locationPrecision":"exact","name":"Nauru Data Center","sourceType":"community_mapped","sourceUrl":"https://www.openstreetmap.org/node/11374310203","subtype":"other_data_centre","valueKind":"observed","sourceIds":["openstreetmap-infrastructure"],"externalIds":{"osm":"node/11374310203"},"aliases":["Nauru Data Center"],"confidence":78}},{"type":"Feature","id":"osm-node-11381773211","geometry":{"type":"Point","coordinates":[-64.482879,-31.105783]},"properties":{"category":"data_centre","coordinates":[-64.482879,-31.105783],"country":"AR","geographyId":"AR-19177384B39000171219781","id":"osm-node-11381773211","lastObservedAt":"2026-07-01T15:55:32Z","lifecycle":"operational","locationPrecision":"exact","name":"LF Services","sourceType":"community_mapped","sourceUrl":"https://www.openstreetmap.org/node/11381773211","subtype":"other_data_centre","valueKind":"observed","sourceIds":["openstreetmap-infrastructure"],"externalIds":{"osm":"node/11381773211"},"aliases":["LF Services"],"admin1Id":"AR-19177384B39000171219781","confidence":78}},{"type":"Feature","id":"osm-node-11383639206","geometry":{"type":"Point","coordinates":[-3.341078,40.519436]},"properties":{"category":"data_centre","coordinates":[-3.341078,40.519436],"country":"ES","geographyId":"ES30","id":"osm-node-11383639206","lastObservedAt":"2026-07-01T15:55:32Z","lifecycle":"operational","locationPrecision":"exact","name":"Centro de Datos Alcalá (Alcalá Data Center)","operator":"Telefónica","sourceType":"community_mapped","sourceUrl":"https://www.openstreetmap.org/node/11383639206","subtype":"other_data_centre","valueKind":"observed","website":"https://nabiax.com/nuestros-data-centers/espana/alcala-data-center/","sourceIds":["openstreetmap-infrastructure"],"externalIds":{"osm":"node/11383639206"},"aliases":["Centro de Datos Alcalá (Alcalá Data Center)"],"admin1Id":"ES-25490228B43154843394848","confidence":78}},{"type":"Feature","id":"osm-node-11386279191","geometry":{"type":"Point","coordinates":[-97.801934,19.425827]},"properties":{"category":"data_centre","coordinates":[-97.801934,19.425827],"country":"MX","geographyId":"MX-31927357B22008724034476","id":"osm-node-11386279191","lastObservedAt":"2026-07-01T15:55:32Z","lifecycle":"operational","locationPrecision":"exact","name":"CST Zona Cero Mx","operator":"Javier MArtinez Roemro","sourceType":"community_mapped","sourceUrl":"https://www.openstreetmap.org/node/11386279191","subtype":"other_data_centre","valueKind":"observed","sourceIds":["openstreetmap-infrastructure"],"externalIds":{"osm":"node/11386279191"},"aliases":["CST Zona Cero Mx"],"admin1Id":"MX-31927357B22008724034476","confidence":78}},{"type":"Feature","id":"osm-node-11386475042","geometry":{"type":"Point","coordinates":[4.787339,52.292874]},"properties":{"category":"data_centre","coordinates":[4.787339,52.292874],"country":"NL","geographyId":"NL32","id":"osm-node-11386475042","lastObservedAt":"2026-07-01T15:55:32Z","lifecycle":"operational","locationPrecision":"exact","name":"NorthC Datacenter Oude Meer","operator":"NorthC","sourceType":"community_mapped","sourceUrl":"https://www.openstreetmap.org/node/11386475042","subtype":"other_data_centre","valueKind":"observed","website":"https://www.northcdatacenters.com/northc-datacenters/oude-meer/","sourceIds":["openstreetmap-infrastructure"],"externalIds":{"osm":"node/11386475042"},"aliases":["NorthC Datacenter Oude Meer"],"admin1Id":"NL-6811986B7118592816602","confidence":78}},{"type":"Feature","id":"osm-node-11400893880","geometry":{"type":"Point","coordinates":[-104.84316,39.593873]},"properties":{"address":{"street":"East Arapahoe Road","houseNumber":"12500","city":"Centennial","state":"CO","postcode":"80112","country":null},"category":"data_centre","coordinates":[-104.84316,39.593873],"country":"US","geographyId":"US-66186276B35012827062242","id":"osm-node-11400893880","lastObservedAt":"2026-07-01T15:55:32Z","lifecycle":"operational","locationPrecision":"exact","name":"Flexential - Denver - Centennial Data Center","operator":"Flexential","sourceType":"community_mapped","sourceUrl":"https://www.openstreetmap.org/node/11400893880","subtype":"other_data_centre","valueKind":"observed","website":"https://www.flexential.com/data-centers/co/denver/centennial-data-center","sourceIds":["openstreetmap-infrastructure"],"externalIds":{"osm":"node/11400893880"},"aliases":["Flexential - Denver - Centennial Data Center"],"admin1Id":"US-66186276B35012827062242","confidence":78}},{"type":"Feature","id":"osm-node-11401173746","geometry":{"type":"Point","coordinates":[67.833691,40.179185]},"properties":{"category":"data_centre","coordinates":[67.833691,40.179185],"country":"UZ","geographyId":"UZ-4885205B95489449998794","id":"osm-node-11401173746","lastObservedAt":"2026-07-01T15:55:32Z","lifecycle":"operational","locationPrecision":"exact","name":"Digital Realty","operator":"Digital Realty","sourceType":"community_mapped","sourceUrl":"https://www.openstreetmap.org/node/11401173746","subtype":"other_data_centre","valueKind":"observed","sourceIds":["openstreetmap-infrastructure"],"externalIds":{"osm":"node/11401173746"},"aliases":["Digital Realty"],"admin1Id":"UZ-4885205B95489449998794","confidence":78}},{"type":"Feature","id":"osm-node-11411205375","geometry":{"type":"Point","coordinates":[121.658481,31.241857]},"properties":{"category":"data_centre","coordinates":[121.658481,31.241857],"country":"CN","geographyId":"CN-43563684B32591653033375","id":"osm-node-11411205375","lastObservedAt":"2026-07-01T15:55:32Z","lifecycle":"operational","locationPrecision":"exact","name":"数据中心","sourceType":"community_mapped","sourceUrl":"https://www.openstreetmap.org/node/11411205375","subtype":"other_data_centre","valueKind":"observed","sourceIds":["openstreetmap-infrastructure"],"externalIds":{"osm":"node/11411205375"},"aliases":["数据中心"],"admin1Id":"CN-43563684B32591653033375","confidence":78}},{"type":"Feature","id":"osm-node-11423466904","geometry":{"type":"Point","coordinates":[42.725492,42.188099]},"properties":{"category":"data_centre","coordinates":[42.725492,42.188099],"country":"GE","geographyId":"GE-13066534B65630723466818","id":"osm-node-11423466904","lastObservedAt":"2026-07-01T15:55:32Z","lifecycle":"operational","locationPrecision":"exact","name":"Internet Exchange Point","sourceType":"community_mapped","sourceUrl":"https://www.openstreetmap.org/node/11423466904","subtype":"other_data_centre","valueKind":"observed","website":"https://www.ixp.ge/","sourceIds":["openstreetmap-infrastructure"],"externalIds":{"osm":"node/11423466904"},"aliases":["Internet Exchange Point"],"admin1Id":"GE-13066534B65630723466818","confidence":78}},{"type":"Feature","id":"osm-node-11426879977","geometry":{"type":"Point","coordinates":[5.406354,51.475948]},"properties":{"address":{"street":"De Schakel","houseNumber":"35","city":"Eindhoven","state":null,"postcode":"5651GH","country":null},"category":"data_centre","coordinates":[5.406354,51.475948],"country":"NL","geographyId":"NL41","id":"osm-node-11426879977","lastObservedAt":"2026-07-01T15:55:32Z","lifecycle":"operational","locationPrecision":"exact","name":"NorthC Datacenter Eindhoven 2","sourceType":"community_mapped","sourceUrl":"https://www.openstreetmap.org/node/11426879977","subtype":"other_data_centre","valueKind":"observed","website":"https://www.northcdatacenters.com/northc-datacenters/eindhoven-2/","sourceIds":["openstreetmap-infrastructure"],"externalIds":{"osm":"node/11426879977"},"aliases":["NorthC Datacenter Eindhoven 2"],"admin1Id":"NL-6811986B61109061302483","confidence":78}},{"type":"Feature","id":"osm-node-11436652398","geometry":{"type":"Point","coordinates":[14.463893,50.069634]},"properties":{"category":"data_centre","coordinates":[14.463893,50.069634],"country":"CZ","geographyId":"CZ01","id":"osm-node-11436652398","lastObservedAt":"2026-07-01T15:55:32Z","lifecycle":"operational","locationPrecision":"exact","name":"MasterDC Praha","sourceType":"community_mapped","sourceUrl":"https://www.openstreetmap.org/node/11436652398","subtype":"other_data_centre","valueKind":"observed","website":"https://www.master.cz/","sourceIds":["openstreetmap-infrastructure"],"externalIds":{"osm":"node/11436652398"},"aliases":["MasterDC Praha"],"admin1Id":"CZ-73172107B16313596965023","confidence":78}},{"type":"Feature","id":"osm-node-11436652399","geometry":{"type":"Point","coordinates":[14.343732,50.101609]},"properties":{"category":"data_centre","coordinates":[14.343732,50.101609],"country":"CZ","geographyId":"CZ01","id":"osm-node-11436652399","lastObservedAt":"2026-07-01T15:55:32Z","lifecycle":"operational","locationPrecision":"exact","name":"DC6.cz","sourceType":"community_mapped","sourceUrl":"https://www.openstreetmap.org/node/11436652399","subtype":"other_data_centre","valueKind":"observed","website":"https://dc6.cz","sourceIds":["openstreetmap-infrastructure"],"externalIds":{"osm":"node/11436652399"},"aliases":["DC6.cz"],"confidence":78}},{"type":"Feature","id":"osm-node-11436652400","geometry":{"type":"Point","coordinates":[17.484169,49.078311]},"properties":{"category":"data_centre","coordinates":[17.484169,49.078311],"country":"CZ","geographyId":"CZ07","id":"osm-node-11436652400","lastObservedAt":"2026-07-01T15:55:32Z","lifecycle":"operational","locationPrecision":"exact","name":"DC Monaco","operator":"O2 Czech Republic a.s.","sourceType":"community_mapped","sourceUrl":"https://www.openstreetmap.org/node/11436652400","subtype":"other_data_centre","valueKind":"observed","sourceIds":["openstreetmap-infrastructure"],"externalIds":{"osm":"node/11436652400"},"aliases":["DC Monaco"],"admin1Id":"CZ-73172107B87463303438563","confidence":78}},{"type":"Feature","id":"osm-node-11449625487","geometry":{"type":"Point","coordinates":[139.345689,35.598005]},"properties":{"category":"data_centre","coordinates":[139.345689,35.598005],"country":"JP","geographyId":"JP-47310658B199342310790","id":"osm-node-11449625487","lastObservedAt":"2026-07-01T15:55:32Z","lifecycle":"operational","locationPrecision":"exact","name":"NTT","operator":"NTT","sourceType":"community_mapped","sourceUrl":"https://www.openstreetmap.org/node/11449625487","subtype":"other_data_centre","valueKind":"observed","sourceIds":["openstreetmap-infrastructure"],"externalIds":{"osm":"node/11449625487"},"aliases":["NTT"],"admin1Id":"JP-47310658B199342310790","confidence":78}},{"type":"Feature","id":"osm-node-11465648283","geometry":{"type":"Point","coordinates":[120.441722,36.117184]},"properties":{"category":"data_centre","coordinates":[120.441722,36.117184],"country":"CN","geographyId":"CN","id":"osm-node-11465648283","lastObservedAt":"2026-07-01T15:55:32Z","lifecycle":"operational","locationPrecision":"exact","name":"Mapped data centre · OSM 11465648283","operator":"山东联通青岛金家岭机房公司","sourceType":"community_mapped","sourceUrl":"https://www.openstreetmap.org/node/11465648283","subtype":"other_data_centre","valueKind":"observed","sourceIds":["openstreetmap-infrastructure"],"externalIds":{"osm":"node/11465648283"},"aliases":["Mapped data centre · OSM 11465648283"],"confidence":78}},{"type":"Feature","id":"osm-node-11477298489","geometry":{"type":"Point","coordinates":[116.895035,-1.243074]},"properties":{"category":"data_centre","coordinates":[116.895035,-1.243074],"country":"ID","geographyId":"ID-65028918B68445169823185","id":"osm-node-11477298489","lastObservedAt":"2026-07-01T15:55:32Z","lifecycle":"operational","locationPrecision":"exact","name":"Traffic Management Center","sourceType":"community_mapped","sourceUrl":"https://www.openstreetmap.org/node/11477298489","subtype":"other_data_centre","valueKind":"observed","sourceIds":["openstreetmap-infrastructure"],"externalIds":{"osm":"node/11477298489"},"aliases":["Traffic Management Center"],"admin1Id":"ID-65028918B68445169823185","confidence":78}},{"type":"Feature","id":"osm-node-11497013684","geometry":{"type":"Point","coordinates":[127.194965,37.551247]},"properties":{"category":"data_centre","coordinates":[127.194965,37.551247],"country":"KR","geographyId":"KR-68945753B43731078897969","id":"osm-node-11497013684","lastObservedAt":"2026-07-01T15:55:32Z","lifecycle":"operational","locationPrecision":"exact","name":"하남IDC","operator":"이지스자산운용","sourceType":"community_mapped","sourceUrl":"https://www.openstreetmap.org/node/11497013684","subtype":"other_data_centre","valueKind":"observed","sourceIds":["openstreetmap-infrastructure"],"externalIds":{"osm":"node/11497013684"},"aliases":["하남IDC"],"admin1Id":"KR-68945753B43731078897969","confidence":78}},{"type":"Feature","id":"osm-node-11497013685","geometry":{"type":"Point","coordinates":[127.195263,37.550497]},"properties":{"category":"data_centre","coordinates":[127.195263,37.550497],"country":"KR","geographyId":"KR-68945753B43731078897969","id":"osm-node-11497013685","lastObservedAt":"2026-07-01T15:55:32Z","lifecycle":"operational","locationPrecision":"exact","name":"IBK기업은행 하남데이터센터","sourceType":"community_mapped","sourceUrl":"https://www.openstreetmap.org/node/11497013685","subtype":"other_data_centre","valueKind":"observed","sourceIds":["openstreetmap-infrastructure"],"externalIds":{"osm":"node/11497013685"},"aliases":["IBK기업은행 하남데이터센터"],"admin1Id":"KR-68945753B43731078897969","confidence":78}},{"type":"Feature","id":"osm-node-11522161405","geometry":{"type":"Point","coordinates":[16.846135,45.903392]},"properties":{"category":"data_centre","coordinates":[16.846135,45.903392],"country":"HR","geographyId":"HR02","id":"osm-node-11522161405","lastObservedAt":"2026-07-01T15:55:32Z","lifecycle":"operational","locationPrecision":"exact","name":"Data Link","sourceType":"community_mapped","sourceUrl":"https://www.openstreetmap.org/node/11522161405","subtype":"other_data_centre","valueKind":"observed","sourceIds":["openstreetmap-infrastructure"],"externalIds":{"osm":"node/11522161405"},"aliases":["Data Link"],"admin1Id":"HR-27960609B61435151319217","confidence":78}},{"type":"Feature","id":"osm-node-11570619130","geometry":{"type":"Point","coordinates":[14.656689,50.137991]},"properties":{"category":"data_centre","coordinates":[14.656689,50.137991],"country":"CZ","geographyId":"CZ02","id":"osm-node-11570619130","lastObservedAt":"2026-07-01T15:55:32Z","lifecycle":"operational","locationPrecision":"exact","name":"Datové centrum Zeleneč","sourceType":"community_mapped","sourceUrl":"https://www.openstreetmap.org/node/11570619130","subtype":"other_data_centre","valueKind":"observed","website":"https://domaci.hn.cz/c1-66947440-v-male-vesnici-nedaleko-prahy-vzniklo-prisne-strezene-datove-centrum-schranuje-klicova-data-statu-i-informace-o-danich","sourceIds":["openstreetmap-infrastructure"],"externalIds":{"osm":"node/11570619130"},"aliases":["Datové centrum Zeleneč"],"admin1Id":"CZ-73172107B58641114734330","confidence":78}},{"type":"Feature","id":"osm-node-11585032609","geometry":{"type":"Point","coordinates":[43.298,33.423463]},"properties":{"category":"data_centre","coordinates":[43.298,33.423463],"country":"IQ","geographyId":"IQ-90741666B95383716564687","id":"osm-node-11585032609","lastObservedAt":"2026-07-01T15:55:32Z","lifecycle":"operational","locationPrecision":"exact","name":"شعبة اللجان الطبية","sourceType":"community_mapped","sourceUrl":"https://www.openstreetmap.org/node/11585032609","subtype":"other_data_centre","valueKind":"observed","sourceIds":["openstreetmap-infrastructure"],"externalIds":{"osm":"node/11585032609"},"aliases":["شعبة اللجان الطبية"],"admin1Id":"IQ-90741666B95383716564687","confidence":78}},{"type":"Feature","id":"osm-node-11620214027","geometry":{"type":"Point","coordinates":[80.041788,12.779408]},"properties":{"address":{"street":"Annai builders ashtalakshmi nagar gudalur marai malai nagar","houseNumber":"No 70 D3","city":"chengalpattu","state":null,"postcode":"603209","country":null},"category":"data_centre","coordinates":[80.041788,12.779408],"country":"IN","geographyId":"IN-1811400B21167269026319","id":"osm-node-11620214027","lastObservedAt":"2026-07-01T15:55:32Z","lifecycle":"operational","locationPrecision":"exact","name":"MilkyUpizise","operator":"MilkyUpizise","sourceType":"community_mapped","sourceUrl":"https://www.openstreetmap.org/node/11620214027","subtype":"other_data_centre","valueKind":"observed","website":"https://dev-milkyupizise.pantheonsite.io","sourceIds":["openstreetmap-infrastructure"],"externalIds":{"osm":"node/11620214027"},"aliases":["MilkyUpizise"],"admin1Id":"IN-1811400B21167269026319","confidence":78}},{"type":"Feature","id":"osm-node-11622511245","geometry":{"type":"Point","coordinates":[78.4624,17.422919]},"properties":{"address":{"street":"The Grand Building, Raj Bhavan Rd, Above KFC","houseNumber":"3rd Floor","city":"Hyderabad","state":null,"postcode":"500082","country":null},"category":"data_centre","coordinates":[78.4624,17.422919],"country":"IN","facilityRef":"Cloud","geographyId":"IN-1811400B25711494603400","id":"osm-node-11622511245","lastObservedAt":"2026-07-01T15:55:32Z","lifecycle":"operational","locationPrecision":"exact","name":"eShare.ai","sourceType":"community_mapped","sourceUrl":"https://www.openstreetmap.org/node/11622511245","subtype":"other_data_centre","valueKind":"observed","website":"https://www.eshare.ai","sourceIds":["openstreetmap-infrastructure"],"externalIds":{"osm":"node/11622511245"},"aliases":["eShare.ai"],"admin1Id":"IN-1811400B25711494603400","confidence":78}},{"type":"Feature","id":"osm-node-11640787539","geometry":{"type":"Point","coordinates":[-0.000981,51.520602]},"properties":{"category":"data_centre","coordinates":[-0.000981,51.520602],"country":"GB","geographyId":"GB-14339913B95766344400054","id":"osm-node-11640787539","lastObservedAt":"2026-07-01T15:55:32Z","lifecycle":"operational","locationPrecision":"exact","name":"Netwise","sourceType":"community_mapped","sourceUrl":"https://www.openstreetmap.org/node/11640787539","subtype":"other_data_centre","valueKind":"observed","sourceIds":["openstreetmap-infrastructure"],"externalIds":{"osm":"node/11640787539"},"aliases":["Netwise"],"admin1Id":"GB-14339913B95766344400054","confidence":78}},{"type":"Feature","id":"osm-node-11654525058","geometry":{"type":"Point","coordinates":[8.773977,55.345385]},"properties":{"category":"data_centre","coordinates":[8.773977,55.345385],"country":"DK","geographyId":"DK03","id":"osm-node-11654525058","lastObservedAt":"2026-07-01T15:55:32Z","lifecycle":"operational","locationPrecision":"exact","name":"Ribe Hostingcenter","operator":"Ribe Mediehus","sourceType":"community_mapped","sourceUrl":"https://www.openstreetmap.org/node/11654525058","subtype":"other_data_centre","valueKind":"observed","website":"https://ribemediehus.dk/hosting/","sourceIds":["openstreetmap-infrastructure"],"externalIds":{"osm":"node/11654525058"},"aliases":["Ribe Hostingcenter"],"admin1Id":"DK-84455774B68755790009873","confidence":78}},{"type":"Feature","id":"osm-node-11666916913","geometry":{"type":"Point","coordinates":[-111.970076,33.395585]},"properties":{"category":"data_centre","coordinates":[-111.970076,33.395585],"country":"US","geographyId":"US-66186276B89395128410123","id":"osm-node-11666916913","lastObservedAt":"2026-07-01T15:55:32Z","lifecycle":"operational","locationPrecision":"exact","name":"EdgeConneX Data Center","operator":"EdgeConneX","sourceType":"community_mapped","sourceUrl":"https://www.openstreetmap.org/node/11666916913","subtype":"other_data_centre","valueKind":"observed","sourceIds":["openstreetmap-infrastructure"],"externalIds":{"osm":"node/11666916913"},"aliases":["EdgeConneX Data Center"],"admin1Id":"US-66186276B89395128410123","confidence":78}},{"type":"Feature","id":"osm-node-11681955880","geometry":{"type":"Point","coordinates":[49.221262,36.146916]},"properties":{"category":"data_centre","coordinates":[49.221262,36.146916],"country":"IR","geographyId":"IR-17685810B38369866596405","id":"osm-node-11681955880","lastObservedAt":"2026-07-01T15:55:32Z","lifecycle":"operational","locationPrecision":"exact","name":"Hi Data","operator":"Company","sourceType":"community_mapped","sourceUrl":"https://www.openstreetmap.org/node/11681955880","subtype":"other_data_centre","valueKind":"observed","website":"https://hidata.org","sourceIds":["openstreetmap-infrastructure"],"externalIds":{"osm":"node/11681955880"},"aliases":["Hi Data"],"admin1Id":"IR-17685810B38369866596405","confidence":78}},{"type":"Feature","id":"osm-node-11691867437","geometry":{"type":"Point","coordinates":[2.055795,43.911912]},"properties":{"category":"data_centre","coordinates":[2.055795,43.911912],"country":"FR","geographyId":"FRJ2","id":"osm-node-11691867437","lastObservedAt":"2026-07-01T15:55:32Z","lifecycle":"operational","locationPrecision":"exact","name":"Crypteo","operator":"Crypteo","sourceType":"community_mapped","sourceUrl":"https://www.openstreetmap.org/node/11691867437","subtype":"other_data_centre","valueKind":"observed","website":"https://www.crypteo.com/","sourceIds":["openstreetmap-infrastructure"],"externalIds":{"osm":"node/11691867437"},"aliases":["Crypteo"],"admin1Id":"FR-19338628B57683459369229","confidence":78}},{"type":"Feature","id":"osm-node-11698016745","geometry":{"type":"Point","coordinates":[85.128276,25.595957]},"properties":{"category":"data_centre","coordinates":[85.128276,25.595957],"country":"IN","geographyId":"IN-1811400B26595099860318","id":"osm-node-11698016745","lastObservedAt":"2026-07-01T15:55:32Z","lifecycle":"operational","locationPrecision":"exact","name":"DIGITAL COMPUTER CENTRE (DCC)","sourceType":"community_mapped","sourceUrl":"https://www.openstreetmap.org/node/11698016745","subtype":"other_data_centre","valueKind":"observed","sourceIds":["openstreetmap-infrastructure"],"externalIds":{"osm":"node/11698016745"},"aliases":["DIGITAL COMPUTER CENTRE (DCC)"],"admin1Id":"IN-1811400B26595099860318","confidence":78}},{"type":"Feature","id":"osm-node-11698484259","geometry":{"type":"Point","coordinates":[11.581978,50.932092]},"properties":{"category":"data_centre","coordinates":[11.581978,50.932092],"country":"DE","geographyId":"DEG0","id":"osm-node-11698484259","lastObservedAt":"2026-07-01T15:55:32Z","lifecycle":"operational","locationPrecision":"exact","name":"Universitätsrechenzentrum","operator":"Friedrich-Schiller-Universität Jena","sourceType":"community_mapped","sourceUrl":"https://www.openstreetmap.org/node/11698484259","subtype":"other_data_centre","valueKind":"observed","sourceIds":["openstreetmap-infrastructure"],"externalIds":{"osm":"node/11698484259"},"aliases":["Universitätsrechenzentrum"],"admin1Id":"DE-10402087B67217417145666","confidence":78}},{"type":"Feature","id":"osm-node-11698788839","geometry":{"type":"Point","coordinates":[37.53857,-2.800132]},"properties":{"category":"data_centre","coordinates":[37.53857,-2.800132],"country":"KE","facilityRef":"SR","geographyId":"KE-32016919B31527762068828","id":"osm-node-11698788839","lastObservedAt":"2026-07-01T15:55:32Z","lifecycle":"operational","locationPrecision":"exact","name":"Server Room","sourceType":"community_mapped","sourceUrl":"https://www.openstreetmap.org/node/11698788839","subtype":"other_data_centre","valueKind":"observed","sourceIds":["openstreetmap-infrastructure"],"externalIds":{"osm":"node/11698788839"},"aliases":["Server Room"],"admin1Id":"KE-32016919B31527762068828","confidence":78}},{"type":"Feature","id":"osm-node-11710505073","geometry":{"type":"Point","coordinates":[36.748959,-1.349869]},"properties":{"category":"data_centre","coordinates":[36.748959,-1.349869],"country":"KE","geographyId":"KE-32016919B57908315498598","id":"osm-node-11710505073","lastObservedAt":"2026-07-01T15:55:32Z","lifecycle":"operational","locationPrecision":"exact","name":"Mapped data centre · OSM 11710505073","sourceType":"community_mapped","sourceUrl":"https://www.openstreetmap.org/node/11710505073","subtype":"other_data_centre","valueKind":"observed","sourceIds":["openstreetmap-infrastructure"],"externalIds":{"osm":"node/11710505073"},"aliases":["Mapped data centre · OSM 11710505073"],"admin1Id":"KE-32016919B57908315498598","confidence":78}},{"type":"Feature","id":"osm-node-11721960464","geometry":{"type":"Point","coordinates":[-122.920669,45.570636]},"properties":{"category":"data_centre","coordinates":[-122.920669,45.570636],"country":"US","geographyId":"US-66186276B97229519707655","id":"osm-node-11721960464","lastObservedAt":"2026-07-01T15:55:32Z","lifecycle":"announced","locationPrecision":"exact","name":"QTS Data Center - Hillsboro 3","sourceType":"community_mapped","sourceUrl":"https://www.openstreetmap.org/node/11721960464","subtype":"other_data_centre","valueKind":"observed","sourceIds":["openstreetmap-infrastructure"],"externalIds":{"osm":"node/11721960464"},"aliases":["QTS Data Center - Hillsboro 3"],"admin1Id":"US-66186276B97229519707655","confidence":78}},{"type":"Feature","id":"osm-node-11731636038","geometry":{"type":"Point","coordinates":[-63.594253,44.654981]},"properties":{"category":"data_centre","coordinates":[-63.594253,44.654981],"country":"CA","geographyId":"CA-82249235B69645938038492","id":"osm-node-11731636038","lastObservedAt":"2026-07-01T15:55:32Z","lifecycle":"operational","locationPrecision":"exact","name":"Mapped data centre · OSM 11731636038","sourceType":"community_mapped","sourceUrl":"https://www.openstreetmap.org/node/11731636038","subtype":"other_data_centre","valueKind":"observed","sourceIds":["openstreetmap-infrastructure"],"externalIds":{"osm":"node/11731636038"},"aliases":["Mapped data centre · OSM 11731636038"],"admin1Id":"CA-82249235B69645938038492","confidence":78}},{"type":"Feature","id":"osm-node-11748636180","geometry":{"type":"Point","coordinates":[8.639788,50.195252]},"properties":{"address":{"street":"Heinrich-Lanz-Allee","houseNumber":"47","city":"Frankfurt am Main","state":null,"postcode":"60437","country":null},"category":"data_centre","coordinates":[8.639788,50.195252],"country":"DE","facilityRef":"FRA-2","geographyId":"DE71","id":"osm-node-11748636180","lastObservedAt":"2026-07-01T15:55:32Z","lifecycle":"operational","locationPrecision":"exact","name":"Iron Mountain FRA-2","operator":"Iron Mountain, Inc.","sourceType":"community_mapped","sourceUrl":"https://www.openstreetmap.org/node/11748636180","subtype":"other_data_centre","valueKind":"observed","website":"https://www.ironmountain.com/data-centers/locations/frankfurt-data-center","sourceIds":["openstreetmap-infrastructure"],"externalIds":{"osm":"node/11748636180"},"aliases":["Iron Mountain FRA-2"],"admin1Id":"DE-10402087B85226028911536","confidence":78}},{"type":"Feature","id":"osm-node-11761004770","geometry":{"type":"Point","coordinates":[23.383464,49.942075]},"properties":{"category":"data_centre","coordinates":[23.383464,49.942075],"country":"UA","geographyId":"UA-14850775B26941409899318","id":"osm-node-11761004770","lastObservedAt":"2026-07-01T15:55:32Z","lifecycle":"operational","locationPrecision":"exact","name":"Mapped data centre · OSM 11761004770","operator":"Apple Inc.","sourceType":"community_mapped","sourceUrl":"https://www.openstreetmap.org/node/11761004770","subtype":"other_data_centre","valueKind":"observed","sourceIds":["openstreetmap-infrastructure"],"externalIds":{"osm":"node/11761004770"},"aliases":["Mapped data centre · OSM 11761004770"],"admin1Id":"UA-14850775B26941409899318","confidence":78}},{"type":"Feature","id":"osm-node-11769470105","geometry":{"type":"Point","coordinates":[-35.876185,-7.224743]},"properties":{"address":{"street":"Rua Paulo de Frontin","houseNumber":"175","city":"Campina Grande","state":null,"postcode":"58407-368","country":null},"category":"data_centre","coordinates":[-35.876185,-7.224743],"country":"BR","geographyId":"BR-14911670B97385369352280","id":"osm-node-11769470105","lastObservedAt":"2026-07-01T15:55:32Z","lifecycle":"operational","locationPrecision":"exact","name":"ISPTEC Telecomunicacoes","sourceType":"community_mapped","sourceUrl":"https://www.openstreetmap.org/node/11769470105","subtype":"other_data_centre","valueKind":"observed","website":"https://www.isptec.com.br/","sourceIds":["openstreetmap-infrastructure"],"externalIds":{"osm":"node/11769470105"},"aliases":["ISPTEC Telecomunicacoes"],"admin1Id":"BR-14911670B97385369352280","confidence":78}},{"type":"Feature","id":"osm-node-11815482844","geometry":{"type":"Point","coordinates":[-83.627629,41.807282]},"properties":{"category":"data_centre","coordinates":[-83.627629,41.807282],"country":"US","geographyId":"US-66186276B37442548568489","id":"osm-node-11815482844","lastObservedAt":"2026-07-01T15:55:32Z","lifecycle":"operational","locationPrecision":"exact","name":"Mapped data centre · OSM 11815482844","sourceType":"community_mapped","sourceUrl":"https://www.openstreetmap.org/node/11815482844","subtype":"other_data_centre","valueKind":"observed","sourceIds":["openstreetmap-infrastructure"],"externalIds":{"osm":"node/11815482844"},"aliases":["Mapped data centre · OSM 11815482844"],"admin1Id":"US-66186276B37442548568489","confidence":78}},{"type":"Feature","id":"osm-node-11822939313","geometry":{"type":"Point","coordinates":[11.328551,43.322716]},"properties":{"address":{"street":"Via dei Montanini","houseNumber":"87","city":"Siena","state":null,"postcode":"53100","country":null},"category":"data_centre","coordinates":[11.328551,43.322716],"country":"IT","geographyId":"ITI1","id":"osm-node-11822939313","lastObservedAt":"2026-07-01T15:55:32Z","lifecycle":"operational","locationPrecision":"exact","name":"E. D. Accounting Siena","sourceType":"community_mapped","sourceUrl":"https://www.openstreetmap.org/node/11822939313","subtype":"other_data_centre","valueKind":"observed","sourceIds":["openstreetmap-infrastructure"],"externalIds":{"osm":"node/11822939313"},"aliases":["E. D. Accounting Siena"],"admin1Id":"IT-72843720B863019116732","confidence":78}},{"type":"Feature","id":"osm-node-11878896378","geometry":{"type":"Point","coordinates":[78.803177,23.86575]},"properties":{"category":"data_centre","coordinates":[78.803177,23.86575],"country":"IN","geographyId":"IN-1811400B75807316846587","id":"osm-node-11878896378","lastObservedAt":"2026-07-01T15:55:32Z","lifecycle":"operational","locationPrecision":"exact","name":"Spatioworld Tracker GPS","sourceType":"community_mapped","sourceUrl":"https://www.openstreetmap.org/node/11878896378","subtype":"other_data_centre","valueKind":"observed","sourceIds":["openstreetmap-infrastructure"],"externalIds":{"osm":"node/11878896378"},"aliases":["Spatioworld Tracker GPS"],"admin1Id":"IN-1811400B75807316846587","confidence":78}},{"type":"Feature","id":"osm-node-11891834487","geometry":{"type":"Point","coordinates":[30.4923,50.449962]},"properties":{"category":"data_centre","coordinates":[30.4923,50.449962],"country":"UA","geographyId":"UA-14850775B22712718081002","id":"osm-node-11891834487","lastObservedAt":"2026-07-01T15:55:32Z","lifecycle":"operational","locationPrecision":"exact","name":"Trident server hosting","operator":"lostyawolfer","sourceType":"community_mapped","sourceUrl":"https://www.openstreetmap.org/node/11891834487","subtype":"other_data_centre","valueKind":"observed","sourceIds":["openstreetmap-infrastructure"],"externalIds":{"osm":"node/11891834487"},"aliases":["Trident server hosting"],"admin1Id":"UA-14850775B22712718081002","confidence":78}},{"type":"Feature","id":"osm-node-11902288339","geometry":{"type":"Point","coordinates":[-0.782054,51.413861]},