{"type":"FeatureCollection","features":[{"type":"Feature","id":"osm-node-10014176940","geometry":{"type":"Point","coordinates":[-66.10899,18.417436]},"properties":{"id":"osm-node-10014176940","name":"Microsoft","operator":"Microsoft","geographyId":"PR","category":"data_centre","subtype":"other_data_centre","lifecycle":"operational","targetYear":null,"coordinates":[-66.10899,18.417436],"locationPrecision":"exact","valueKind":"observed","sourceIds":["openstreetmap-infrastructure"],"sourceType":"community_mapped","sourceUrl":"https://www.openstreetmap.org/node/10014176940","externalIds":{"osm":"node/10014176940"},"lastObservedAt":"2026-06-28T05:11:05Z","demandMw":null,"address":{"street":"Avenida El Caño","houseNumber":"48","city":"Guaynabo","state":"PR","postcode":"00968","country":null},"country":"PR","confidence":78}},{"type":"Feature","id":"osm-node-10020456958","geometry":{"type":"Point","coordinates":[36.322808,33.546331]},"properties":{"id":"osm-node-10020456958","name":"مركز خدمات لشركة ارامكس","operator":null,"geographyId":"SY-8384693B24866558579919","category":"data_centre","subtype":"other_data_centre","lifecycle":"operational","targetYear":null,"coordinates":[36.322808,33.546331],"locationPrecision":"exact","valueKind":"observed","sourceIds":["openstreetmap-infrastructure"],"sourceType":"community_mapped","sourceUrl":"https://www.openstreetmap.org/node/10020456958","externalIds":{"osm":"node/10020456958"},"lastObservedAt":"2026-06-28T05:11:05Z","demandMw":null,"country":"SY","admin1Id":"SY-8384693B24866558579919","confidence":78}},{"type":"Feature","id":"osm-node-10062286674","geometry":{"type":"Point","coordinates":[-21.993466,64.049465]},"properties":{"id":"osm-node-10062286674","name":"atNorth ICE01","operator":"atNorth","geographyId":"IS00","category":"data_centre","subtype":"other_data_centre","lifecycle":"operational","targetYear":null,"coordinates":[-21.993466,64.049465],"locationPrecision":"exact","valueKind":"observed","sourceIds":["openstreetmap-infrastructure"],"sourceType":"community_mapped","sourceUrl":"https://www.openstreetmap.org/node/10062286674","externalIds":{"osm":"node/10062286674"},"lastObservedAt":"2026-06-28T05:11:05Z","demandMw":null,"website":"https://atnorth.com/colocation/ice01","country":"IS","admin1Id":"IS-53860390B39552912285510","confidence":78}},{"type":"Feature","id":"osm-node-10089225111","geometry":{"type":"Point","coordinates":[0.187134,48.053855]},"properties":{"id":"osm-node-10089225111","name":"Datagrex","operator":null,"geographyId":"FRG0","category":"data_centre","subtype":"other_data_centre","lifecycle":"operational","targetYear":null,"coordinates":[0.187134,48.053855],"locationPrecision":"exact","valueKind":"observed","sourceIds":["openstreetmap-infrastructure"],"sourceType":"community_mapped","sourceUrl":"https://www.openstreetmap.org/node/10089225111","externalIds":{"osm":"node/10089225111"},"lastObservedAt":"2026-06-28T05:11:05Z","demandMw":null,"website":"https://www.datagrex.com/","address":{"street":"Rue de Villeneuve","houseNumber":"28","city":"Saint-Saturnin","state":null,"postcode":"72650","country":null},"country":"FR","admin1Id":"FR-19338628B99642989531496","confidence":78}},{"type":"Feature","id":"osm-node-10147406397","geometry":{"type":"Point","coordinates":[13.369301,52.502034]},"properties":{"id":"osm-node-10147406397","name":"IPB Internet Provider in Berlin GmbH","operator":null,"geographyId":"DE30","category":"data_centre","subtype":"other_data_centre","lifecycle":"operational","targetYear":null,"coordinates":[13.369301,52.502034],"locationPrecision":"exact","valueKind":"observed","sourceIds":["openstreetmap-infrastructure"],"sourceType":"community_mapped","sourceUrl":"https://www.openstreetmap.org/node/10147406397","externalIds":{"osm":"node/10147406397"},"lastObservedAt":"2026-06-28T05:11:05Z","demandMw":null,"website":"https://www.ipb.de/","address":{"street":"Lützowstraße","houseNumber":"106","city":"Berlin","state":null,"postcode":"10785","country":null},"country":"DE","admin1Id":"DE-10402087B20892132820961","confidence":78}},{"type":"Feature","id":"osm-node-10151456045","geometry":{"type":"Point","coordinates":[-72.546429,45.879305]},"properties":{"id":"osm-node-10151456045","name":"Cologix","operator":"Cologix","geographyId":"CA-82249235B52639524229375","category":"data_centre","subtype":"other_data_centre","lifecycle":"operational","targetYear":null,"coordinates":[-72.546429,45.879305],"locationPrecision":"exact","valueKind":"observed","sourceIds":["openstreetmap-infrastructure"],"sourceType":"community_mapped","sourceUrl":"https://www.openstreetmap.org/node/10151456045","externalIds":{"osm":"node/10151456045"},"lastObservedAt":"2026-06-28T05:11:05Z","demandMw":null,"facilityRef":"MTL9-H","address":{"street":"Rue Canadien","houseNumber":"2525","city":"Drummondville","state":null,"postcode":"J2C 7W2","country":null},"country":"CA","admin1Id":"CA-82249235B52639524229375","confidence":78}},{"type":"Feature","id":"osm-node-10171383675","geometry":{"type":"Point","coordinates":[116.263298,40.033906]},"properties":{"id":"osm-node-10171383675","name":"中国银行数据中心","operator":null,"geographyId":"CN-43563684B17418114845297","category":"data_centre","subtype":"other_data_centre","lifecycle":"operational","targetYear":null,"coordinates":[116.263298,40.033906],"locationPrecision":"exact","valueKind":"observed","sourceIds":["openstreetmap-infrastructure"],"sourceType":"community_mapped","sourceUrl":"https://www.openstreetmap.org/node/10171383675","externalIds":{"osm":"node/10171383675"},"lastObservedAt":"2026-06-28T05:11:05Z","demandMw":null,"country":"CN","admin1Id":"CN-43563684B17418114845297","confidence":78}},{"type":"Feature","id":"osm-node-10177608934","geometry":{"type":"Point","coordinates":[9.066904,45.480306]},"properties":{"id":"osm-node-10177608934","name":"Avalon 2","operator":"Irideos","geographyId":"ITC4","category":"data_centre","subtype":"other_data_centre","lifecycle":"operational","targetYear":null,"coordinates":[9.066904,45.480306],"locationPrecision":"exact","valueKind":"observed","sourceIds":["openstreetmap-infrastructure"],"sourceType":"community_mapped","sourceUrl":"https://www.openstreetmap.org/node/10177608934","externalIds":{"osm":"node/10177608934"},"lastObservedAt":"2026-06-28T05:11:05Z","demandMw":null,"website":"https://irideos.it/avalon2/","address":{"street":"Via Enrico Fermi","houseNumber":null,"city":"Settimo Milanese","state":null,"postcode":null,"country":null},"country":"IT","admin1Id":"IT-72843720B99597932318450","confidence":78}},{"type":"Feature","id":"osm-node-10182165798","geometry":{"type":"Point","coordinates":[90.944898,27.245217]},"properties":{"id":"osm-node-10182165798","name":"Community Information Center","operator":"Nima Om","geographyId":"BT-66845921B52582047921765","category":"data_centre","subtype":"other_data_centre","lifecycle":"operational","targetYear":null,"coordinates":[90.944898,27.245217],"locationPrecision":"exact","valueKind":"observed","sourceIds":["openstreetmap-infrastructure"],"sourceType":"community_mapped","sourceUrl":"https://www.openstreetmap.org/node/10182165798","externalIds":{"osm":"node/10182165798"},"lastObservedAt":"2026-06-28T05:11:05Z","demandMw":null,"country":"BT","admin1Id":"BT-66845921B52582047921765","confidence":78}},{"type":"Feature","id":"osm-node-10206899831","geometry":{"type":"Point","coordinates":[11.360202,44.520098]},"properties":{"id":"osm-node-10206899831","name":"ECMWF - Centro Meteo Europeo","operator":"ECMWF","geographyId":"ITH5","category":"data_centre","subtype":"other_data_centre","lifecycle":"operational","targetYear":null,"coordinates":[11.360202,44.520098],"locationPrecision":"exact","valueKind":"observed","sourceIds":["openstreetmap-infrastructure"],"sourceType":"community_mapped","sourceUrl":"https://www.openstreetmap.org/node/10206899831","externalIds":{"osm":"node/10206899831"},"lastObservedAt":"2026-06-28T05:11:05Z","demandMw":null,"website":"https://www.ecmwf.int/","startDate":"2021-09-14","country":"IT","admin1Id":"IT-72843720B59566147937015","confidence":78}},{"type":"Feature","id":"osm-node-10206899878","geometry":{"type":"Point","coordinates":[11.359426,44.520438]},"properties":{"id":"osm-node-10206899878","name":"Supercalcolatore Leonardo - Rete EuroHPC","operator":"Cineca","geographyId":"ITH5","category":"data_centre","subtype":"other_data_centre","lifecycle":"operational","targetYear":null,"coordinates":[11.359426,44.520438],"locationPrecision":"exact","valueKind":"observed","sourceIds":["openstreetmap-infrastructure"],"sourceType":"community_mapped","sourceUrl":"https://www.openstreetmap.org/node/10206899878","externalIds":{"osm":"node/10206899878","wikidata":"Q65128414","wikipedia":"it:Leonardo (supercomputer)"},"lastObservedAt":"2026-06-28T05:11:05Z","demandMw":null,"website":"https://www.cineca.it/temi-caldi/Leonardo","startDate":"2022-11-24","country":"IT","admin1Id":"IT-72843720B59566147937015","confidence":78}},{"type":"Feature","id":"osm-node-10241762412","geometry":{"type":"Point","coordinates":[5.07767,47.340051]},"properties":{"id":"osm-node-10241762412","name":"DTiX","operator":null,"geographyId":"FRC1","category":"data_centre","subtype":"other_data_centre","lifecycle":"operational","targetYear":null,"coordinates":[5.07767,47.340051],"locationPrecision":"exact","valueKind":"observed","sourceIds":["openstreetmap-infrastructure"],"sourceType":"community_mapped","sourceUrl":"https://www.openstreetmap.org/node/10241762412","externalIds":{"osm":"node/10241762412"},"lastObservedAt":"2026-06-28T05:11:05Z","demandMw":null,"website":"https://www.dtix.fr/","address":{"street":"Rue de la Redoute","houseNumber":"24","city":"Saint-Apollinaire","state":null,"postcode":"21850","country":null},"country":"FR","admin1Id":"FR-19338628B30439183828151","confidence":78}},{"type":"Feature","id":"osm-node-10295346393","geometry":{"type":"Point","coordinates":[28.044302,45.426602]},"properties":{"id":"osm-node-10295346393","name":"RCAST Hosting","operator":null,"geographyId":"RO22","category":"data_centre","subtype":"other_data_centre","lifecycle":"operational","targetYear":null,"coordinates":[28.044302,45.426602],"locationPrecision":"exact","valueKind":"observed","sourceIds":["openstreetmap-infrastructure"],"sourceType":"community_mapped","sourceUrl":"https://www.openstreetmap.org/node/10295346393","externalIds":{"osm":"node/10295346393"},"lastObservedAt":"2026-06-28T05:11:05Z","demandMw":null,"website":"https://www.rcast.net","address":{"street":"Strada Ovidiu","houseNumber":"13","city":"Galați","state":null,"postcode":"800080","country":null},"country":"RO","confidence":78}},{"type":"Feature","id":"osm-node-10299599312","geometry":{"type":"Point","coordinates":[151.189882,-33.919309]},"properties":{"id":"osm-node-10299599312","name":"Equinix SY5","operator":"Equinix","geographyId":"AU-82085004B21656044714531","category":"data_centre","subtype":"other_data_centre","lifecycle":"operational","targetYear":null,"coordinates":[151.189882,-33.919309],"locationPrecision":"exact","valueKind":"observed","sourceIds":["openstreetmap-infrastructure"],"sourceType":"community_mapped","sourceUrl":"https://www.openstreetmap.org/node/10299599312","externalIds":{"osm":"node/10299599312"},"lastObservedAt":"2026-06-28T05:11:05Z","demandMw":null,"website":"https://www.equinix.com/data-centers/asia-pacific-colocation/australia-colocation/sydney-data-centers/sy5","facilityRef":"SY5","address":{"street":"Bourke Road","houseNumber":"200","city":null,"state":null,"postcode":null,"country":null},"country":"AU","admin1Id":"AU-82085004B21656044714531","confidence":78}},{"type":"Feature","id":"osm-node-10316973933","geometry":{"type":"Point","coordinates":[9.005672,44.99329]},"properties":{"id":"osm-node-10316973933","name":"Mapped data centre · OSM 10316973933","operator":"TIM","geographyId":"ITC4","category":"data_centre","subtype":"other_data_centre","lifecycle":"operational","targetYear":null,"coordinates":[9.005672,44.99329],"locationPrecision":"exact","valueKind":"observed","sourceIds":["openstreetmap-infrastructure"],"sourceType":"community_mapped","sourceUrl":"https://www.openstreetmap.org/node/10316973933","externalIds":{"osm":"node/10316973933"},"lastObservedAt":"2026-06-28T05:11:05Z","demandMw":null,"country":"IT","admin1Id":"IT-72843720B99597932318450","confidence":78}},{"type":"Feature","id":"osm-node-10435617347","geometry":{"type":"Point","coordinates":[4.765313,52.281445]},"properties":{"id":"osm-node-10435617347","name":"Digital Realty AMS7","operator":"Digital Realty","geographyId":"NL32","category":"data_centre","subtype":"other_data_centre","lifecycle":"operational","targetYear":null,"coordinates":[4.765313,52.281445],"locationPrecision":"exact","valueKind":"observed","sourceIds":["openstreetmap-infrastructure"],"sourceType":"community_mapped","sourceUrl":"https://www.openstreetmap.org/node/10435617347","externalIds":{"osm":"node/2840442643"},"lastObservedAt":"2026-06-28T05:11:05Z","demandMw":null,"website":"https://www.digitalrealty.com/data-centers/emea/amsterdam/ams7","facilityRef":"AMS7","address":{"street":"Cessnalaan","houseNumber":"50","city":"Schiphol-Rijk","state":null,"postcode":"1119NL","country":null},"country":"NL","aliases":["Digital Realty","Digital Realty AMS7"],"admin1Id":"NL-6811986B7118592816602","confidence":78}},{"type":"Feature","id":"osm-node-10537283366","geometry":{"type":"Point","coordinates":[-87.63344,41.872881]},"properties":{"id":"osm-node-10537283366","name":"Netrality","operator":"Netrality","geographyId":"US-66186276B11383391196245","category":"data_centre","subtype":"other_data_centre","lifecycle":"operational","targetYear":null,"coordinates":[-87.63344,41.872881],"locationPrecision":"exact","valueKind":"observed","sourceIds":["openstreetmap-infrastructure"],"sourceType":"community_mapped","sourceUrl":"https://www.openstreetmap.org/node/10537283366","externalIds":{"osm":"node/10537283366"},"lastObservedAt":"2026-06-28T05:11:05Z","demandMw":null,"address":{"street":"South Wells Street","houseNumber":"717","city":"Chicago","state":"IL","postcode":"60607","country":null},"country":"US","admin1Id":"US-66186276B11383391196245","confidence":78}},{"type":"Feature","id":"osm-node-10566132363","geometry":{"type":"Point","coordinates":[8.277523,47.064375]},"properties":{"id":"osm-node-10566132363","name":"24 hours fiberwork ag","operator":null,"geographyId":"CH06","category":"data_centre","subtype":"other_data_centre","lifecycle":"operational","targetYear":null,"coordinates":[8.277523,47.064375],"locationPrecision":"exact","valueKind":"observed","sourceIds":["openstreetmap-infrastructure"],"sourceType":"community_mapped","sourceUrl":"https://www.openstreetmap.org/node/10566132363","externalIds":{"osm":"node/10566132363"},"lastObservedAt":"2026-06-28T05:11:05Z","demandMw":null,"website":"https://fiberwork.ch","startDate":"2018-06-13","address":{"street":"Täschmattstrasse","houseNumber":"16","city":"Luzern","state":null,"postcode":"6015","country":"CH"},"country":"CH","admin1Id":"CH-70761945B29073934101403","confidence":78}},{"type":"Feature","id":"osm-node-10567817971","geometry":{"type":"Point","coordinates":[-78.938532,36.003099]},"properties":{"id":"osm-node-10567817971","name":"Brandaleone Lab for Data and Visualization","operator":"Duke Libraries","geographyId":"US-66186276B6801956407400","category":"data_centre","subtype":"other_data_centre","lifecycle":"operational","targetYear":null,"coordinates":[-78.938532,36.003099],"locationPrecision":"exact","valueKind":"observed","sourceIds":["openstreetmap-infrastructure"],"sourceType":"community_mapped","sourceUrl":"https://www.openstreetmap.org/node/10567817971","externalIds":{"osm":"node/10567817971"},"lastObservedAt":"2026-06-28T05:11:05Z","demandMw":null,"country":"US","admin1Id":"US-66186276B6801956407400","confidence":78}},{"type":"Feature","id":"osm-node-10568811919","geometry":{"type":"Point","coordinates":[19.111095,50.821987]},"properties":{"id":"osm-node-10568811919","name":"Miejska Sieć Komputerowa CzestMAN","operator":null,"geographyId":"PL22","category":"data_centre","subtype":"other_data_centre","lifecycle":"operational","targetYear":null,"coordinates":[19.111095,50.821987],"locationPrecision":"exact","valueKind":"observed","sourceIds":["openstreetmap-infrastructure"],"sourceType":"community_mapped","sourceUrl":"https://www.openstreetmap.org/node/10568811919","externalIds":{"osm":"node/10568811919"},"lastObservedAt":"2026-06-28T05:11:05Z","demandMw":null,"country":"PL","admin1Id":"PL-17162690B16879770934003","confidence":78}},{"type":"Feature","id":"osm-node-10607054827","geometry":{"type":"Point","coordinates":[4.250412,50.706803]},"properties":{"id":"osm-node-10607054827","name":"FoxNetwork","operator":"Louis Beke","geographyId":"BE24","category":"data_centre","subtype":"other_data_centre","lifecycle":"operational","targetYear":null,"coordinates":[4.250412,50.706803],"locationPrecision":"exact","valueKind":"observed","sourceIds":["openstreetmap-infrastructure"],"sourceType":"community_mapped","sourceUrl":"https://www.openstreetmap.org/node/10607054827","externalIds":{"osm":"node/10607054827"},"lastObservedAt":"2026-06-28T05:11:05Z","demandMw":null,"country":"BE","confidence":78}},{"type":"Feature","id":"osm-node-10648255815","geometry":{"type":"Point","coordinates":[27.696506,64.231635]},"properties":{"id":"osm-node-10648255815","name":"CSC – IT Center for Science","operator":"CSC","geographyId":"FI1D","category":"data_centre","subtype":"other_data_centre","lifecycle":"operational","targetYear":null,"coordinates":[27.696506,64.231635],"locationPrecision":"exact","valueKind":"observed","sourceIds":["openstreetmap-infrastructure"],"sourceType":"community_mapped","sourceUrl":"https://www.openstreetmap.org/node/10648255815","externalIds":{"osm":"node/10648255815"},"lastObservedAt":"2026-06-28T05:11:05Z","demandMw":null,"country":"FI","admin1Id":"FI-49019192B44835655910893","confidence":78}},{"type":"Feature","id":"osm-node-10648294221","geometry":{"type":"Point","coordinates":[27.695611,64.23197]},"properties":{"id":"osm-node-10648294221","name":"LUMI (supercomputer)","operator":"EuroHPC/CSC","geographyId":"FI1D","category":"data_centre","subtype":"other_data_centre","lifecycle":"operational","targetYear":null,"coordinates":[27.695611,64.23197],"locationPrecision":"exact","valueKind":"observed","sourceIds":["openstreetmap-infrastructure"],"sourceType":"community_mapped","sourceUrl":"https://www.openstreetmap.org/node/10648294221","externalIds":{"osm":"node/10648294221"},"lastObservedAt":"2026-06-28T05:11:05Z","demandMw":null,"country":"FI","admin1Id":"FI-49019192B44835655910893","confidence":78}},{"type":"Feature","id":"osm-node-10648552506","geometry":{"type":"Point","coordinates":[-84.310567,35.929513]},"properties":{"id":"osm-node-10648552506","name":"Frontier (supercomputer)","operator":"Oak Ridge National Laboratory","geographyId":"US-66186276B52324970173776","category":"data_centre","subtype":"other_data_centre","lifecycle":"operational","targetYear":null,"coordinates":[-84.310567,35.929513],"locationPrecision":"exact","valueKind":"observed","sourceIds":["openstreetmap-infrastructure"],"sourceType":"community_mapped","sourceUrl":"https://www.openstreetmap.org/node/10648552506","externalIds":{"osm":"node/10648552506"},"lastObservedAt":"2026-06-28T05:11:05Z","demandMw":null,"country":"US","admin1Id":"US-66186276B52324970173776","confidence":78}},{"type":"Feature","id":"osm-node-10648561696","geometry":{"type":"Point","coordinates":[11.259782,44.486329]},"properties":{"id":"osm-node-10648561696","name":"Leonardo (supercomputer)","operator":"CINECA","geographyId":"ITH5","category":"data_centre","subtype":"other_data_centre","lifecycle":"operational","targetYear":null,"coordinates":[11.259782,44.486329],"locationPrecision":"exact","valueKind":"observed","sourceIds":["openstreetmap-infrastructure"],"sourceType":"community_mapped","sourceUrl":"https://www.openstreetmap.org/node/10648561696","externalIds":{"osm":"node/10648561696"},"lastObservedAt":"2026-06-28T05:11:05Z","demandMw":null,"country":"IT","admin1Id":"IT-72843720B59566147937015","confidence":78}},{"type":"Feature","id":"osm-node-10688935368","geometry":{"type":"Point","coordinates":[8.887552,47.561965]},"properties":{"id":"osm-node-10688935368","name":"Datacenter Thurgau","operator":"EKT AG","geographyId":"CH05","category":"data_centre","subtype":"other_data_centre","lifecycle":"operational","targetYear":null,"coordinates":[8.887552,47.561965],"locationPrecision":"exact","valueKind":"observed","sourceIds":["openstreetmap-infrastructure"],"sourceType":"community_mapped","sourceUrl":"https://www.openstreetmap.org/node/10688935368","externalIds":{"osm":"node/10688935368"},"lastObservedAt":"2026-06-28T05:11:05Z","demandMw":null,"website":"https://datacenterthurgau.ch/","country":"CH","admin1Id":"CH-70761945B73326014959541","confidence":78}},{"type":"Feature","id":"osm-node-10749325391","geometry":{"type":"Point","coordinates":[-84.098824,9.931225]},"properties":{"id":"osm-node-10749325391","name":"Microsoft","operator":"Microsoft","geographyId":"CR-80129987B28144345958142","category":"data_centre","subtype":"other_data_centre","lifecycle":"operational","targetYear":null,"coordinates":[-84.098824,9.931225],"locationPrecision":"exact","valueKind":"observed","sourceIds":["openstreetmap-infrastructure"],"sourceType":"community_mapped","sourceUrl":"https://www.openstreetmap.org/node/10749325391","externalIds":{"osm":"node/10749325391"},"lastObservedAt":"2026-06-28T05:11:05Z","demandMw":null,"address":{"street":"Avenida 12","houseNumber":null,"city":"San José","state":null,"postcode":null,"country":null},"country":"CR","admin1Id":"CR-80129987B28144345958142","confidence":78}},{"type":"Feature","id":"osm-node-10750169778","geometry":{"type":"Point","coordinates":[32.425535,-25.975504]},"properties":{"id":"osm-node-10750169778","name":"Teja Services","operator":null,"geographyId":"MZ-27363107B47421408423272","category":"data_centre","subtype":"other_data_centre","lifecycle":"operational","targetYear":null,"coordinates":[32.425535,-25.975504],"locationPrecision":"exact","valueKind":"observed","sourceIds":["openstreetmap-infrastructure"],"sourceType":"community_mapped","sourceUrl":"https://www.openstreetmap.org/node/10750169778","externalIds":{"osm":"node/10750169778"},"lastObservedAt":"2026-06-28T05:11:05Z","demandMw":null,"country":"MZ","admin1Id":"MZ-27363107B47421408423272","confidence":78}},{"type":"Feature","id":"osm-node-10780794741","geometry":{"type":"Point","coordinates":[-122.394,37.779653]},"properties":{"id":"osm-node-10780794741","name":"Mapped data centre · OSM 10780794741","operator":"Ntirety","geographyId":"US","category":"data_centre","subtype":"other_data_centre","lifecycle":"operational","targetYear":null,"coordinates":[-122.394,37.779653],"locationPrecision":"exact","valueKind":"observed","sourceIds":["openstreetmap-infrastructure"],"sourceType":"community_mapped","sourceUrl":"https://www.openstreetmap.org/node/10780794741","externalIds":{"osm":"node/10780794741"},"lastObservedAt":"2026-06-28T05:11:05Z","demandMw":null,"address":{"street":"3rd Street","houseNumber":"630","city":null,"state":"CA","postcode":null,"country":null},"country":"US","confidence":78}},{"type":"Feature","id":"osm-node-10786634736","geometry":{"type":"Point","coordinates":[-0.195969,5.551976]},"properties":{"id":"osm-node-10786634736","name":"National Data Centre","operator":"Government of Ghana","geographyId":"GH","category":"data_centre","subtype":"other_data_centre","lifecycle":"operational","targetYear":null,"coordinates":[-0.195969,5.551976],"locationPrecision":"exact","valueKind":"observed","sourceIds":["openstreetmap-infrastructure"],"sourceType":"community_mapped","sourceUrl":"https://www.openstreetmap.org/node/10786634736","externalIds":{"osm":"node/10786634736"},"lastObservedAt":"2026-06-28T05:11:05Z","demandMw":null,"country":"GH","confidence":78}},{"type":"Feature","id":"osm-node-10796113031","geometry":{"type":"Point","coordinates":[-111.901703,33.627367]},"properties":{"id":"osm-node-10796113031","name":"VaultLogix","operator":null,"geographyId":"US-66186276B89395128410123","category":"data_centre","subtype":"other_data_centre","lifecycle":"operational","targetYear":null,"coordinates":[-111.901703,33.627367],"locationPrecision":"exact","valueKind":"observed","sourceIds":["openstreetmap-infrastructure"],"sourceType":"community_mapped","sourceUrl":"https://www.openstreetmap.org/node/10796113031","externalIds":{"osm":"node/10796113031"},"lastObservedAt":"2026-06-28T05:11:05Z","demandMw":null,"country":"US","admin1Id":"US-66186276B89395128410123","confidence":78}},{"type":"Feature","id":"osm-node-10796113033","geometry":{"type":"Point","coordinates":[-111.902048,33.627248]},"properties":{"id":"osm-node-10796113033","name":"Profit Finder Pro Software","operator":null,"geographyId":"US-66186276B89395128410123","category":"data_centre","subtype":"other_data_centre","lifecycle":"operational","targetYear":null,"coordinates":[-111.902048,33.627248],"locationPrecision":"exact","valueKind":"observed","sourceIds":["openstreetmap-infrastructure"],"sourceType":"community_mapped","sourceUrl":"https://www.openstreetmap.org/node/10796113033","externalIds":{"osm":"node/10796113033"},"lastObservedAt":"2026-06-28T05:11:05Z","demandMw":null,"country":"US","admin1Id":"US-66186276B89395128410123","confidence":78}},{"type":"Feature","id":"osm-node-10798644674","geometry":{"type":"Point","coordinates":[-111.913983,33.611662]},"properties":{"id":"osm-node-10798644674","name":"DataPro USA Web Development","operator":null,"geographyId":"US-66186276B89395128410123","category":"data_centre","subtype":"other_data_centre","lifecycle":"operational","targetYear":null,"coordinates":[-111.913983,33.611662],"locationPrecision":"exact","valueKind":"observed","sourceIds":["openstreetmap-infrastructure"],"sourceType":"community_mapped","sourceUrl":"https://www.openstreetmap.org/node/10798644674","externalIds":{"osm":"node/10798644674"},"lastObservedAt":"2026-06-28T05:11:05Z","demandMw":null,"country":"US","admin1Id":"US-66186276B89395128410123","confidence":78}},{"type":"Feature","id":"osm-node-10852549720","geometry":{"type":"Point","coordinates":[13.787985,43.196864]},"properties":{"id":"osm-node-10852549720","name":"Studio BETA SRLS","operator":null,"geographyId":"ITI3","category":"data_centre","subtype":"other_data_centre","lifecycle":"operational","targetYear":null,"coordinates":[13.787985,43.196864],"locationPrecision":"exact","valueKind":"observed","sourceIds":["openstreetmap-infrastructure"],"sourceType":"community_mapped","sourceUrl":"https://www.openstreetmap.org/node/10852549720","externalIds":{"osm":"node/10852549720"},"lastObservedAt":"2026-06-28T05:11:05Z","demandMw":null,"address":{"street":"via Abruzzo","houseNumber":"25","city":"Porto San Giorgio","state":null,"postcode":"63822","country":null},"country":"IT","confidence":78}},{"type":"Feature","id":"osm-node-10853783649","geometry":{"type":"Point","coordinates":[10.903686,48.355006]},"properties":{"id":"osm-node-10853783649","name":"Mapped data centre · OSM 10853783649","operator":null,"geographyId":"DE27","category":"data_centre","subtype":"other_data_centre","lifecycle":"operational","targetYear":null,"coordinates":[10.903686,48.355006],"locationPrecision":"exact","valueKind":"observed","sourceIds":["openstreetmap-infrastructure"],"sourceType":"community_mapped","sourceUrl":"https://www.openstreetmap.org/node/10853783649","externalIds":{"osm":"node/10853783649"},"lastObservedAt":"2026-06-28T05:11:05Z","demandMw":null,"website":"https://www.tha.de/Rechenzentrum.html","country":"DE","admin1Id":"DE-10402087B60477050509260","confidence":78}},{"type":"Feature","id":"osm-node-10873403420","geometry":{"type":"Point","coordinates":[113.26792,23.146047]},"properties":{"id":"osm-node-10873403420","name":"广州长途电信线路局","operator":null,"geographyId":"CN-43563684B38891657012300","category":"data_centre","subtype":"other_data_centre","lifecycle":"operational","targetYear":null,"coordinates":[113.26792,23.146047],"locationPrecision":"exact","valueKind":"observed","sourceIds":["openstreetmap-infrastructure"],"sourceType":"community_mapped","sourceUrl":"https://www.openstreetmap.org/node/10873403420","externalIds":{"osm":"node/10873403420"},"lastObservedAt":"2026-06-28T05:11:05Z","demandMw":null,"country":"CN","admin1Id":"CN-43563684B38891657012300","confidence":78}},{"type":"Feature","id":"osm-node-10880725408","geometry":{"type":"Point","coordinates":[-122.043738,37.971081]},"properties":{"id":"osm-node-10880725408","name":"e360","operator":null,"geographyId":"US-66186276B43071933723331","category":"data_centre","subtype":"other_data_centre","lifecycle":"operational","targetYear":null,"coordinates":[-122.043738,37.971081],"locationPrecision":"exact","valueKind":"observed","sourceIds":["openstreetmap-infrastructure"],"sourceType":"community_mapped","sourceUrl":"https://www.openstreetmap.org/node/10880725408","externalIds":{"osm":"node/10880725408"},"lastObservedAt":"2026-06-28T05:11:05Z","demandMw":null,"website":"https://www.e360.com/","address":{"street":"Gateway Boulevard","houseNumber":"1855","city":"Concord","state":"CA","postcode":"94520","country":null},"country":"US","admin1Id":"US-66186276B43071933723331","confidence":78}},{"type":"Feature","id":"osm-node-10880784344","geometry":{"type":"Point","coordinates":[51.47622,51.283834]},"properties":{"id":"osm-node-10880784344","name":"Data Center Uralsk","operator":null,"geographyId":"KZ-16772668B81356436661636","category":"data_centre","subtype":"other_data_centre","lifecycle":"operational","targetYear":null,"coordinates":[51.47622,51.283834],"locationPrecision":"exact","valueKind":"observed","sourceIds":["openstreetmap-infrastructure"],"sourceType":"community_mapped","sourceUrl":"https://www.openstreetmap.org/node/10880784344","externalIds":{"osm":"node/10880784344"},"lastObservedAt":"2026-06-28T05:11:05Z","demandMw":null,"country":"KZ","admin1Id":"KZ-16772668B81356436661636","confidence":78}},{"type":"Feature","id":"osm-node-10910879064","geometry":{"type":"Point","coordinates":[-87.618307,41.853351]},"properties":{"id":"osm-node-10910879064","name":"Digital Realty ORD10","operator":"Digital Realty","geographyId":"US-66186276B11383391196245","category":"data_centre","subtype":"other_data_centre","lifecycle":"operational","targetYear":null,"coordinates":[-87.618307,41.853351],"locationPrecision":"exact","valueKind":"observed","sourceIds":["openstreetmap-infrastructure"],"sourceType":"community_mapped","sourceUrl":"https://www.openstreetmap.org/node/10910879064","externalIds":{"osm":"node/10910879064"},"lastObservedAt":"2026-06-28T05:11:05Z","demandMw":null,"facilityRef":"ORD10","address":{"street":"East Cermak Road","houseNumber":"350","city":"Chicago","state":"IL","postcode":"60616","country":null},"country":"US","admin1Id":"US-66186276B11383391196245","confidence":78}},{"type":"Feature","id":"osm-node-10910879065","geometry":{"type":"Point","coordinates":[-87.618607,41.853383]},"properties":{"id":"osm-node-10910879065","name":"Centersquare Chicago Data Center - ORD1","operator":"Centersquare","geographyId":"US-66186276B11383391196245","category":"data_centre","subtype":"other_data_centre","lifecycle":"operational","targetYear":null,"coordinates":[-87.618607,41.853383],"locationPrecision":"exact","valueKind":"observed","sourceIds":["openstreetmap-infrastructure"],"sourceType":"community_mapped","sourceUrl":"https://www.openstreetmap.org/node/10910879065","externalIds":{"osm":"node/10910879065"},"lastObservedAt":"2026-06-28T05:11:05Z","demandMw":null,"website":"https://centersquaredc.com/data-centers/chicago#chicagocermak-ord1","facilityRef":"ORD1","address":{"street":"East Cermak Road","houseNumber":"350","city":"Chicago","state":"IL","postcode":"60616","country":null},"country":"US","admin1Id":"US-66186276B11383391196245","confidence":78}},{"type":"Feature","id":"osm-node-10914062309","geometry":{"type":"Point","coordinates":[35.571249,33.884864]},"properties":{"id":"osm-node-10914062309","name":"God Of Mining","operator":null,"geographyId":"LB-68408151B78911970066467","category":"data_centre","subtype":"other_data_centre","lifecycle":"operational","targetYear":null,"coordinates":[35.571249,33.884864],"locationPrecision":"exact","valueKind":"observed","sourceIds":["openstreetmap-infrastructure"],"sourceType":"community_mapped","sourceUrl":"https://www.openstreetmap.org/node/10914062309","externalIds":{"osm":"node/10914062309"},"lastObservedAt":"2026-06-28T05:11:05Z","demandMw":null,"website":"https://www.godofmining.net/","country":"LB","admin1Id":"LB-68408151B78911970066467","confidence":78}},{"type":"Feature","id":"osm-node-10938672218","geometry":{"type":"Point","coordinates":[-111.884346,33.634484]},"properties":{"id":"osm-node-10938672218","name":"K-Motion Interactive","operator":null,"geographyId":"US-66186276B89395128410123","category":"data_centre","subtype":"other_data_centre","lifecycle":"operational","targetYear":null,"coordinates":[-111.884346,33.634484],"locationPrecision":"exact","valueKind":"observed","sourceIds":["openstreetmap-infrastructure"],"sourceType":"community_mapped","sourceUrl":"https://www.openstreetmap.org/node/10938672218","externalIds":{"osm":"node/10938672218"},"lastObservedAt":"2026-06-28T05:11:05Z","demandMw":null,"country":"US","admin1Id":"US-66186276B89395128410123","confidence":78}},{"type":"Feature","id":"osm-node-10939660647","geometry":{"type":"Point","coordinates":[101.729392,3.174386]},"properties":{"id":"osm-node-10939660647","name":"MAF War Gaming Simulation Center","operator":null,"geographyId":"MY-15666254B89722251658211","category":"data_centre","subtype":"other_data_centre","lifecycle":"operational","targetYear":null,"coordinates":[101.729392,3.174386],"locationPrecision":"exact","valueKind":"observed","sourceIds":["openstreetmap-infrastructure"],"sourceType":"community_mapped","sourceUrl":"https://www.openstreetmap.org/node/10939660647","externalIds":{"osm":"node/10939660647"},"lastObservedAt":"2026-06-28T05:11:05Z","demandMw":null,"country":"MY","admin1Id":"MY-15666254B89722251658211","confidence":78}},{"type":"Feature","id":"osm-node-10945121336","geometry":{"type":"Point","coordinates":[-87.635938,41.880527]},"properties":{"id":"osm-node-10945121336","name":"West Monroe","operator":null,"geographyId":"US-66186276B11383391196245","category":"data_centre","subtype":"other_data_centre","lifecycle":"operational","targetYear":null,"coordinates":[-87.635938,41.880527],"locationPrecision":"exact","valueKind":"observed","sourceIds":["openstreetmap-infrastructure"],"sourceType":"community_mapped","sourceUrl":"https://www.openstreetmap.org/node/10945121336","externalIds":{"osm":"node/10945121336"},"lastObservedAt":"2026-06-28T05:11:05Z","demandMw":null,"country":"US","admin1Id":"US-66186276B11383391196245","confidence":78}},{"type":"Feature","id":"osm-node-10993896233","geometry":{"type":"Point","coordinates":[118.32513,33.951096]},"properties":{"id":"osm-node-10993896233","name":"中国电信宿迁分公司云计算中心","operator":null,"geographyId":"CN-43563684B64367354813847","category":"data_centre","subtype":"other_data_centre","lifecycle":"operational","targetYear":null,"coordinates":[118.32513,33.951096],"locationPrecision":"exact","valueKind":"observed","sourceIds":["openstreetmap-infrastructure"],"sourceType":"community_mapped","sourceUrl":"https://www.openstreetmap.org/node/10993896233","externalIds":{"osm":"node/10993896233"},"lastObservedAt":"2026-06-28T05:11:05Z","demandMw":null,"country":"CN","admin1Id":"CN-43563684B64367354813847","confidence":78}},{"type":"Feature","id":"osm-node-11005419206","geometry":{"type":"Point","coordinates":[14.771565,41.121981]},"properties":{"id":"osm-node-11005419206","name":"Arpac","operator":"Arpac","geographyId":"ITF3","category":"data_centre","subtype":"other_data_centre","lifecycle":"operational","targetYear":null,"coordinates":[14.771565,41.121981],"locationPrecision":"exact","valueKind":"observed","sourceIds":["openstreetmap-infrastructure"],"sourceType":"community_mapped","sourceUrl":"https://www.openstreetmap.org/node/11005419206","externalIds":{"osm":"node/11005419206"},"lastObservedAt":"2026-06-28T05:11:05Z","demandMw":null,"country":"IT","admin1Id":"IT-72843720B88210905209841","confidence":78}},{"type":"Feature","id":"osm-node-11014689116","geometry":{"type":"Point","coordinates":[13.373836,52.432618]},"properties":{"id":"osm-node-11014689116","name":"CarrierColo Berlin K","operator":"IPB","geographyId":"DE30","category":"data_centre","subtype":"other_data_centre","lifecycle":"operational","targetYear":null,"coordinates":[13.373836,52.432618],"locationPrecision":"exact","valueKind":"observed","sourceIds":["openstreetmap-infrastructure"],"sourceType":"community_mapped","sourceUrl":"https://www.openstreetmap.org/node/11014689116","externalIds":{"osm":"node/11014689116"},"lastObservedAt":"2026-06-28T05:11:05Z","demandMw":null,"website":"https://www.carrier-colo.com/de/datacenter/location-k.html","startDate":"2010-12","address":{"street":"Kitzingstraße","houseNumber":"15","city":"Berlin","state":null,"postcode":"12277","country":null},"country":"DE","admin1Id":"DE-10402087B20892132820961","confidence":78}},{"type":"Feature","id":"osm-node-11018926315","geometry":{"type":"Point","coordinates":[-111.896099,33.644666]},"properties":{"id":"osm-node-11018926315","name":"Iron Mountain Data Centers AZS-1","operator":null,"geographyId":"US-66186276B89395128410123","category":"data_centre","subtype":"other_data_centre","lifecycle":"operational","targetYear":null,"coordinates":[-111.896099,33.644666],"locationPrecision":"exact","valueKind":"observed","sourceIds":["openstreetmap-infrastructure"],"sourceType":"community_mapped","sourceUrl":"https://www.openstreetmap.org/node/11018926315","externalIds":{"osm":"node/11018926315"},"lastObservedAt":"2026-06-28T05:11:05Z","demandMw":null,"country":"US","admin1Id":"US-66186276B89395128410123","confidence":78}},{"type":"Feature","id":"osm-node-11057872687","geometry":{"type":"Point","coordinates":[153.033383,-27.453995]},"properties":{"id":"osm-node-11057872687","name":"NextDC","operator":null,"geographyId":"AU","category":"data_centre","subtype":"other_data_centre","lifecycle":"operational","targetYear":null,"coordinates":[153.033383,-27.453995],"locationPrecision":"exact","valueKind":"observed","sourceIds":["openstreetmap-infrastructure"],"sourceType":"community_mapped","sourceUrl":"https://www.openstreetmap.org/node/11057872687","externalIds":{"osm":"node/11057872687"},"lastObservedAt":"2026-06-28T05:11:05Z","demandMw":null,"country":"AU","confidence":78}},{"type":"Feature","id":"osm-node-11064014638","geometry":{"type":"Point","coordinates":[-1.485082,53.380892]},"properties":{"id":"osm-node-11064014638","name":"UoS IT Services","operator":null,"geographyId":"GB-14339913B95766344400054","category":"data_centre","subtype":"other_data_centre","lifecycle":"operational","targetYear":null,"coordinates":[-1.485082,53.380892],"locationPrecision":"exact","valueKind":"observed","sourceIds":["openstreetmap-infrastructure"],"sourceType":"community_mapped","sourceUrl":"https://www.openstreetmap.org/node/11064014638","externalIds":{"osm":"node/11064014638"},"lastObservedAt":"2026-06-28T05:11:05Z","demandMw":null,"country":"GB","admin1Id":"GB-14339913B95766344400054","confidence":78}},{"type":"Feature","id":"osm-node-11073240773","geometry":{"type":"Point","coordinates":[119.12525,36.669845]},"properties":{"id":"osm-node-11073240773","name":"中国联通奎文云计算中心","operator":null,"geographyId":"CN-43563684B58995436924100","category":"data_centre","subtype":"other_data_centre","lifecycle":"operational","targetYear":null,"coordinates":[119.12525,36.669845],"locationPrecision":"exact","valueKind":"observed","sourceIds":["openstreetmap-infrastructure"],"sourceType":"community_mapped","sourceUrl":"https://www.openstreetmap.org/node/11073240773","externalIds":{"osm":"node/11073240773"},"lastObservedAt":"2026-06-28T05:11:05Z","demandMw":null,"country":"CN","admin1Id":"CN-43563684B58995436924100","confidence":78}},{"type":"Feature","id":"osm-node-11085093688","geometry":{"type":"Point","coordinates":[17.093694,48.121258]},"properties":{"id":"osm-node-11085093688","name":"SWAN Datacentrum","operator":"SWAN","geographyId":"SK01","category":"data_centre","subtype":"other_data_centre","lifecycle":"operational","targetYear":null,"coordinates":[17.093694,48.121258],"locationPrecision":"exact","valueKind":"observed","sourceIds":["openstreetmap-infrastructure"],"sourceType":"community_mapped","sourceUrl":"https://www.openstreetmap.org/node/11085093688","externalIds":{"osm":"node/11085093688"},"lastObservedAt":"2026-06-28T05:11:05Z","demandMw":null,"website":"https://www.swan.sk","country":"SK","admin1Id":"SK-25762395B46801803338249","confidence":78}},{"type":"Feature","id":"osm-node-11097428175","geometry":{"type":"Point","coordinates":[8.888471,47.571275]},"properties":{"id":"osm-node-11097428175","name":"RZ CAMPUS","operator":"Bund","geographyId":"CH05","category":"data_centre","subtype":"other_data_centre","lifecycle":"operational","targetYear":null,"coordinates":[8.888471,47.571275],"locationPrecision":"exact","valueKind":"observed","sourceIds":["openstreetmap-infrastructure"],"sourceType":"community_mapped","sourceUrl":"https://www.openstreetmap.org/node/11097428175","externalIds":{"osm":"node/11097428175"},"lastObservedAt":"2026-06-28T05:11:05Z","demandMw":null,"country":"CH","admin1Id":"CH-70761945B73326014959541","confidence":78}},{"type":"Feature","id":"osm-node-11098469355","geometry":{"type":"Point","coordinates":[-87.631466,41.87594]},"properties":{"id":"osm-node-11098469355","name":"CoreSite Chicago Data Center (CH1)","operator":"CoreSite","geographyId":"US-66186276B11383391196245","category":"data_centre","subtype":"other_data_centre","lifecycle":"operational","targetYear":null,"coordinates":[-87.631466,41.87594],"locationPrecision":"exact","valueKind":"observed","sourceIds":["openstreetmap-infrastructure"],"sourceType":"community_mapped","sourceUrl":"https://www.openstreetmap.org/node/11098469355","externalIds":{"osm":"way/841813139"},"lastObservedAt":"2026-06-28T05:11:05Z","demandMw":null,"website":"https://www.coresite.com/data-center/ch1-chicago-il","facilityRef":"CH1","address":{"street":"South LaSalle Street","houseNumber":"427","city":"Chicago","state":"IL","postcode":"60605","country":null},"country":"US","aliases":["CoreSite Chicago Data Center (CH1)","CoreSite Chicago Data Center (CH2)"],"admin1Id":"US-66186276B11383391196245","confidence":78}},{"type":"Feature","id":"osm-node-11113161710","geometry":{"type":"Point","coordinates":[-112.111714,33.664745]},"properties":{"id":"osm-node-11113161710","name":"Accelera Data Systems","operator":null,"geographyId":"US-66186276B89395128410123","category":"data_centre","subtype":"other_data_centre","lifecycle":"operational","targetYear":null,"coordinates":[-112.111714,33.664745],"locationPrecision":"exact","valueKind":"observed","sourceIds":["openstreetmap-infrastructure"],"sourceType":"community_mapped","sourceUrl":"https://www.openstreetmap.org/node/11113161710","externalIds":{"osm":"node/11113161710"},"lastObservedAt":"2026-06-28T05:11:05Z","demandMw":null,"country":"US","admin1Id":"US-66186276B89395128410123","confidence":78}},{"type":"Feature","id":"osm-node-11114729904","geometry":{"type":"Point","coordinates":[10.160728,36.69821]},"properties":{"id":"osm-node-11114729904","name":"الهيكل الخاص الهدى لتقديم الدروس الخصوصية","operator":null,"geographyId":"TN-13205935B75715054307065","category":"data_centre","subtype":"other_data_centre","lifecycle":"operational","targetYear":null,"coordinates":[10.160728,36.69821],"locationPrecision":"exact","valueKind":"observed","sourceIds":["openstreetmap-infrastructure"],"sourceType":"community_mapped","sourceUrl":"https://www.openstreetmap.org/node/11114729904","externalIds":{"osm":"node/11114729904"},"lastObservedAt":"2026-06-28T05:11:05Z","demandMw":null,"country":"TN","admin1Id":"TN-13205935B75715054307065","confidence":78}},{"type":"Feature","id":"osm-node-11119659852","geometry":{"type":"Point","coordinates":[35.137511,49.454774]},"properties":{"id":"osm-node-11119659852","name":"AirNet","operator":"ТОВ \"АІРНЕТ\"","geographyId":"UA-14850775B18105645488844","category":"data_centre","subtype":"other_data_centre","lifecycle":"operational","targetYear":null,"coordinates":[35.137511,49.454774],"locationPrecision":"exact","valueKind":"observed","sourceIds":["openstreetmap-infrastructure"],"sourceType":"community_mapped","sourceUrl":"https://www.openstreetmap.org/node/11119659852","externalIds":{"osm":"node/11119659852"},"lastObservedAt":"2026-06-28T05:11:05Z","demandMw":null,"address":{"street":"вулиця Полтавський Шлях","houseNumber":"44-А","city":null,"state":null,"postcode":"39500","country":null},"country":"UA","admin1Id":"UA-14850775B18105645488844","confidence":78}},{"type":"Feature","id":"osm-node-11161995738","geometry":{"type":"Point","coordinates":[-3.037693,51.555607]},"properties":{"id":"osm-node-11161995738","name":"Centerprise International Newport","operator":null,"geographyId":"GB-14339913B89763821047858","category":"data_centre","subtype":"other_data_centre","lifecycle":"operational","targetYear":null,"coordinates":[-3.037693,51.555607],"locationPrecision":"exact","valueKind":"observed","sourceIds":["openstreetmap-infrastructure"],"sourceType":"community_mapped","sourceUrl":"https://www.openstreetmap.org/node/11161995738","externalIds":{"osm":"node/11161995738"},"lastObservedAt":"2026-06-28T05:11:05Z","demandMw":null,"website":"https://www.centerprisecloud.co.uk","address":{"street":null,"houseNumber":null,"city":"Newport","state":null,"postcode":"NP10 8BE","country":null},"country":"GB","admin1Id":"GB-14339913B89763821047858","confidence":78}},{"type":"Feature","id":"osm-node-11162004018","geometry":{"type":"Point","coordinates":[-3.229003,51.629334]},"properties":{"id":"osm-node-11162004018","name":"Centerprise International (Distribution)","operator":"Centerprise International","geographyId":"GB-14339913B89763821047858","category":"data_centre","subtype":"other_data_centre","lifecycle":"operational","targetYear":null,"coordinates":[-3.229003,51.629334],"locationPrecision":"exact","valueKind":"observed","sourceIds":["openstreetmap-infrastructure"],"sourceType":"community_mapped","sourceUrl":"https://www.openstreetmap.org/node/11162004018","externalIds":{"osm":"node/11162004018"},"lastObservedAt":"2026-06-28T05:11:05Z","demandMw":null,"website":"https://www.centerprise.co.uk/contact-us","address":{"street":"Alder Avenue","houseNumber":"9","city":"Ystrad Mynach","state":null,"postcode":"CF82 7TW","country":null},"country":"GB","admin1Id":"GB-14339913B89763821047858","confidence":78}},{"type":"Feature","id":"osm-node-11167049138","geometry":{"type":"Point","coordinates":[-1.479385,53.375805]},"properties":{"id":"osm-node-11167049138","name":"Hive IT","operator":null,"geographyId":"GB-14339913B95766344400054","category":"data_centre","subtype":"other_data_centre","lifecycle":"operational","targetYear":null,"coordinates":[-1.479385,53.375805],"locationPrecision":"exact","valueKind":"observed","sourceIds":["openstreetmap-infrastructure"],"sourceType":"community_mapped","sourceUrl":"https://www.openstreetmap.org/node/11167049138","externalIds":{"osm":"node/11167049138"},"lastObservedAt":"2026-06-28T05:11:05Z","demandMw":null,"country":"GB","admin1Id":"GB-14339913B95766344400054","confidence":78}},{"type":"Feature","id":"osm-node-11167641842","geometry":{"type":"Point","coordinates":[-76.81155,39.427318]},"properties":{"id":"osm-node-11167641842","name":"Expedient Owings Mills","operator":"Expedient","geographyId":"US-66186276B21291522594454","category":"data_centre","subtype":"other_data_centre","lifecycle":"operational","targetYear":null,"coordinates":[-76.81155,39.427318],"locationPrecision":"exact","valueKind":"observed","sourceIds":["openstreetmap-infrastructure"],"sourceType":"community_mapped","sourceUrl":"https://www.openstreetmap.org/node/11167641842","externalIds":{"osm":"node/11167641842"},"lastObservedAt":"2026-06-28T05:11:05Z","demandMw":null,"website":"https://www.expedient.com/data-centers/baltimore/","address":{"street":"Red Run Boulevard","houseNumber":"11155","city":"Owings Mills","state":"MD","postcode":"21117","country":null},"country":"US","admin1Id":"US-66186276B21291522594454","confidence":78}},{"type":"Feature","id":"osm-node-11168593074","geometry":{"type":"Point","coordinates":[-76.620402,39.291759]},"properties":{"id":"osm-node-11168593074","name":"Lumen Baltimore","operator":"Lumen Technologies","geographyId":"US-66186276B21291522594454","category":"data_centre","subtype":"other_data_centre","lifecycle":"operational","targetYear":null,"coordinates":[-76.620402,39.291759],"locationPrecision":"exact","valueKind":"observed","sourceIds":["openstreetmap-infrastructure"],"sourceType":"community_mapped","sourceUrl":"https://www.openstreetmap.org/node/11168593074","externalIds":{"osm":"node/11168593074"},"lastObservedAt":"2026-06-28T05:11:05Z","demandMw":null,"country":"US","admin1Id":"US-66186276B21291522594454","confidence":78}},{"type":"Feature","id":"osm-node-11168593094","geometry":{"type":"Point","coordinates":[-76.591671,39.274655]},"properties":{"id":"osm-node-11168593094","name":"Expedient Tidepoint","operator":"Expedient","geographyId":"US-66186276B21291522594454","category":"data_centre","subtype":"other_data_centre","lifecycle":"operational","targetYear":null,"coordinates":[-76.591671,39.274655],"locationPrecision":"exact","valueKind":"observed","sourceIds":["openstreetmap-infrastructure"],"sourceType":"community_mapped","sourceUrl":"https://www.openstreetmap.org/node/11168593094","externalIds":{"osm":"node/11168593094"},"lastObservedAt":"2026-06-28T05:11:05Z","demandMw":null,"website":"https://www.expedient.com/data-centers/baltimore/","country":"US","admin1Id":"US-66186276B21291522594454","confidence":78}},{"type":"Feature","id":"osm-node-11175817920","geometry":{"type":"Point","coordinates":[-38.218119,-11.305833]},"properties":{"id":"osm-node-11175817920","name":"Dinfo (Provedor De Internet)","operator":null,"geographyId":"BR-14911670B19428866735507","category":"data_centre","subtype":"other_data_centre","lifecycle":"operational","targetYear":null,"coordinates":[-38.218119,-11.305833],"locationPrecision":"exact","valueKind":"observed","sourceIds":["openstreetmap-infrastructure"],"sourceType":"community_mapped","sourceUrl":"https://www.openstreetmap.org/node/11175817920","externalIds":{"osm":"node/11175817920"},"lastObservedAt":"2026-06-28T05:11:05Z","demandMw":null,"country":"BR","admin1Id":"BR-14911670B19428866735507","confidence":78}},{"type":"Feature","id":"osm-node-11175817921","geometry":{"type":"Point","coordinates":[-38.216586,-11.303791]},"properties":{"id":"osm-node-11175817921","name":"Net Wireless","operator":null,"geographyId":"BR-14911670B19428866735507","category":"data_centre","subtype":"other_data_centre","lifecycle":"operational","targetYear":null,"coordinates":[-38.216586,-11.303791],"locationPrecision":"exact","valueKind":"observed","sourceIds":["openstreetmap-infrastructure"],"sourceType":"community_mapped","sourceUrl":"https://www.openstreetmap.org/node/11175817921","externalIds":{"osm":"node/11175817921"},"lastObservedAt":"2026-06-28T05:11:05Z","demandMw":null,"country":"BR","admin1Id":"BR-14911670B19428866735507","confidence":78}},{"type":"Feature","id":"osm-node-11196801643","geometry":{"type":"Point","coordinates":[-73.520165,45.522956]},"properties":{"id":"osm-node-11196801643","name":"Colo RIve-Sud","operator":null,"geographyId":"CA-82249235B52639524229375","category":"data_centre","subtype":"other_data_centre","lifecycle":"operational","targetYear":null,"coordinates":[-73.520165,45.522956],"locationPrecision":"exact","valueKind":"observed","sourceIds":["openstreetmap-infrastructure"],"sourceType":"community_mapped","sourceUrl":"https://www.openstreetmap.org/node/11196801643","externalIds":{"osm":"node/11196801643"},"lastObservedAt":"2026-06-28T05:11:05Z","demandMw":null,"address":{"street":"Rue Saint-Charles Ouest","houseNumber":"1225","city":"Longueuil","state":null,"postcode":"J4K 1A7","country":null},"country":"CA","admin1Id":"CA-82249235B52639524229375","confidence":78}},{"type":"Feature","id":"osm-node-11197263596","geometry":{"type":"Point","coordinates":[4.942595,52.299775]},"properties":{"id":"osm-node-11197263596","name":"Equinix AM1","operator":"Equinix","geographyId":"NL32","category":"data_centre","subtype":"other_data_centre","lifecycle":"operational","targetYear":null,"coordinates":[4.942595,52.299775],"locationPrecision":"exact","valueKind":"observed","sourceIds":["openstreetmap-infrastructure"],"sourceType":"community_mapped","sourceUrl":"https://www.openstreetmap.org/node/11197263596","externalIds":{"osm":"node/11197263596"},"lastObservedAt":"2026-06-28T05:11:05Z","demandMw":null,"facilityRef":"AM1","address":{"street":"Luttenbergweg","houseNumber":"4","city":"Amsterdam","state":null,"postcode":"1101EC","country":"NL"},"country":"NL","admin1Id":"NL-6811986B7118592816602","confidence":78}},{"type":"Feature","id":"osm-node-11209760563","geometry":{"type":"Point","coordinates":[3.145635,50.639928]},"properties":{"id":"osm-node-11209760563","name":"Mapped data centre · OSM 11209760563","operator":"Ate","geographyId":"FRE1","category":"data_centre","subtype":"other_data_centre","lifecycle":"operational","targetYear":null,"coordinates":[3.145635,50.639928],"locationPrecision":"exact","valueKind":"observed","sourceIds":["openstreetmap-infrastructure"],"sourceType":"community_mapped","sourceUrl":"https://www.openstreetmap.org/node/11209760563","externalIds":{"osm":"node/11209760563"},"lastObservedAt":"2026-06-28T05:11:05Z","demandMw":null,"country":"FR","admin1Id":"FR-19338628B36302232233914","confidence":78}},{"type":"Feature","id":"osm-node-11210951272","geometry":{"type":"Point","coordinates":[76.545962,18.408392]},"properties":{"id":"osm-node-11210951272","name":"Netizens Digital Zone","operator":null,"geographyId":"IN-1811400B15614733245507","category":"data_centre","subtype":"other_data_centre","lifecycle":"operational","targetYear":null,"coordinates":[76.545962,18.408392],"locationPrecision":"exact","valueKind":"observed","sourceIds":["openstreetmap-infrastructure"],"sourceType":"community_mapped","sourceUrl":"https://www.openstreetmap.org/node/11210951272","externalIds":{"osm":"node/11210951272"},"lastObservedAt":"2026-06-28T05:11:05Z","demandMw":null,"country":"IN","admin1Id":"IN-1811400B15614733245507","confidence":78}},{"type":"Feature","id":"osm-node-11221719097","geometry":{"type":"Point","coordinates":[121.495372,31.239148]},"properties":{"id":"osm-node-11221719097","name":"Microsoft","operator":"Microsoft","geographyId":"CN-43563684B32591653033375","category":"data_centre","subtype":"other_data_centre","lifecycle":"operational","targetYear":null,"coordinates":[121.495372,31.239148],"locationPrecision":"exact","valueKind":"observed","sourceIds":["openstreetmap-infrastructure"],"sourceType":"community_mapped","sourceUrl":"https://www.openstreetmap.org/node/11221719097","externalIds":{"osm":"node/11221719097"},"lastObservedAt":"2026-06-28T05:11:05Z","demandMw":null,"country":"CN","admin1Id":"CN-43563684B32591653033375","confidence":78}},{"type":"Feature","id":"osm-node-11224729504","geometry":{"type":"Point","coordinates":[29.022141,40.209534]},"properties":{"id":"osm-node-11224729504","name":"Medyabim Datacenter","operator":null,"geographyId":"TR41","category":"data_centre","subtype":"other_data_centre","lifecycle":"operational","targetYear":null,"coordinates":[29.022141,40.209534],"locationPrecision":"exact","valueKind":"observed","sourceIds":["openstreetmap-infrastructure"],"sourceType":"community_mapped","sourceUrl":"https://www.openstreetmap.org/node/11224729504","externalIds":{"osm":"node/11224729504"},"lastObservedAt":"2026-06-28T05:11:05Z","demandMw":null,"country":"TR","admin1Id":"TR-25984515B5155931768473","confidence":78}},{"type":"Feature","id":"osm-node-11230512768","geometry":{"type":"Point","coordinates":[117.307046,38.997567]},"properties":{"id":"osm-node-11230512768","name":"Mapped data centre · OSM 11230512768","operator":null,"geographyId":"CN-43563684B84701301190484","category":"data_centre","subtype":"other_data_centre","lifecycle":"operational","targetYear":null,"coordinates":[117.307046,38.997567],"locationPrecision":"exact","valueKind":"observed","sourceIds":["openstreetmap-infrastructure"],"sourceType":"community_mapped","sourceUrl":"https://www.openstreetmap.org/node/11230512768","externalIds":{"osm":"node/11230512768"},"lastObservedAt":"2026-06-28T05:11:05Z","demandMw":null,"country":"CN","admin1Id":"CN-43563684B84701301190484","confidence":78}},{"type":"Feature","id":"osm-node-11232265750","geometry":{"type":"Point","coordinates":[25.7599,46.957367]},"properties":{"id":"osm-node-11232265750","name":"Mapped data centre · OSM 11232265750","operator":null,"geographyId":"RO12","category":"data_centre","subtype":"other_data_centre","lifecycle":"operational","targetYear":null,"coordinates":[25.7599,46.957367],"locationPrecision":"exact","valueKind":"observed","sourceIds":["openstreetmap-infrastructure"],"sourceType":"community_mapped","sourceUrl":"https://www.openstreetmap.org/node/11232265750","externalIds":{"osm":"node/11232265750"},"lastObservedAt":"2026-06-28T05:11:05Z","demandMw":null,"country":"RO","admin1Id":"RO-36066543B14518908529982","confidence":78}},{"type":"Feature","id":"osm-node-11274525973","geometry":{"type":"Point","coordinates":[51.563831,35.750821]},"properties":{"id":"osm-node-11274525973","name":"مرکز کامپیوتر پردیس رضایی‌نژاد","operator":"K. N. Toosi University of Technology","geographyId":"IR-17685810B50760377364469","category":"data_centre","subtype":"other_data_centre","lifecycle":"operational","targetYear":null,"coordinates":[51.563831,35.750821],"locationPrecision":"exact","valueKind":"observed","sourceIds":["openstreetmap-infrastructure"],"sourceType":"community_mapped","sourceUrl":"https://www.openstreetmap.org/node/11274525973","externalIds":{"osm":"node/11274525973"},"lastObservedAt":"2026-06-28T05:11:05Z","demandMw":null,"country":"IR","admin1Id":"IR-17685810B50760377364469","confidence":78}},{"type":"Feature","id":"osm-node-11278586220","geometry":{"type":"Point","coordinates":[-70.656155,-33.444186]},"properties":{"id":"osm-node-11278586220","name":"Equinix Data Center - ST3","operator":"Equinix","geographyId":"CL-47653553B78904739401519","category":"data_centre","subtype":"other_data_centre","lifecycle":"operational","targetYear":null,"coordinates":[-70.656155,-33.444186],"locationPrecision":"exact","valueKind":"observed","sourceIds":["openstreetmap-infrastructure"],"sourceType":"community_mapped","sourceUrl":"https://www.openstreetmap.org/node/11278586220","externalIds":{"osm":"node/11278586220"},"lastObservedAt":"2026-06-28T05:11:05Z","demandMw":null,"website":"https://www.equinix.lat/","address":{"street":"Pasaje Nueva Amunátegui","houseNumber":"26","city":null,"state":null,"postcode":null,"country":null},"country":"CL","admin1Id":"CL-47653553B78904739401519","confidence":78}},{"type":"Feature","id":"osm-node-11280595231","geometry":{"type":"Point","coordinates":[-70.600067,-33.418763]},"properties":{"id":"osm-node-11280595231","name":"Data Center IFX Networks","operator":"IFX Networks","geographyId":"CL-47653553B78904739401519","category":"data_centre","subtype":"other_data_centre","lifecycle":"operational","targetYear":null,"coordinates":[-70.600067,-33.418763],"locationPrecision":"exact","valueKind":"observed","sourceIds":["openstreetmap-infrastructure"],"sourceType":"community_mapped","sourceUrl":"https://www.openstreetmap.org/node/11280595231","externalIds":{"osm":"node/11280595231"},"lastObservedAt":"2026-06-28T05:11:05Z","demandMw":null,"website":"https://ifxnetworks.com/","address":{"street":"El Bosque Central","houseNumber":"90","city":null,"state":null,"postcode":null,"country":null},"country":"CL","admin1Id":"CL-47653553B78904739401519","confidence":78}},{"type":"Feature","id":"osm-node-11282993748","geometry":{"type":"Point","coordinates":[-2.874273,43.242036]},"properties":{"id":"osm-node-11282993748","name":"Mozoilo AJVP","operator":"Mozoilo","geographyId":"ES21","category":"data_centre","subtype":"other_data_centre","lifecycle":"operational","targetYear":null,"coordinates":[-2.874273,43.242036],"locationPrecision":"exact","valueKind":"observed","sourceIds":["openstreetmap-infrastructure"],"sourceType":"community_mapped","sourceUrl":"https://www.openstreetmap.org/node/11282993748","externalIds":{"osm":"node/11282993748"},"lastObservedAt":"2026-06-28T05:11:05Z","demandMw":null,"address":{"street":null,"houseNumber":"1","city":"Galdakao","state":null,"postcode":"48960","country":null},"country":"ES","admin1Id":"ES-25490228B56567998760255","confidence":78}},{"type":"Feature","id":"osm-node-11368507133","geometry":{"type":"Point","coordinates":[30.328231,59.97887]},"properties":{"id":"osm-node-11368507133","name":"DataCenter Three Seven","operator":null,"geographyId":"RU-28173009B8796515134902","category":"data_centre","subtype":"other_data_centre","lifecycle":"operational","targetYear":null,"coordinates":[30.328231,59.97887],"locationPrecision":"exact","valueKind":"observed","sourceIds":["openstreetmap-infrastructure"],"sourceType":"community_mapped","sourceUrl":"https://www.openstreetmap.org/node/11368507133","externalIds":{"osm":"node/11368507133"},"lastObservedAt":"2026-06-28T05:11:05Z","demandMw":null,"website":"https://bs777.ru","country":"RU","admin1Id":"RU-28173009B8796515134902","confidence":78}},{"type":"Feature","id":"osm-node-11374310203","geometry":{"type":"Point","coordinates":[166.916248,-0.54749]},"properties":{"id":"osm-node-11374310203","name":"Nauru Data Center","operator":null,"geographyId":"NR","category":"data_centre","subtype":"other_data_centre","lifecycle":"operational","targetYear":null,"coordinates":[166.916248,-0.54749],"locationPrecision":"exact","valueKind":"observed","sourceIds":["openstreetmap-infrastructure"],"sourceType":"community_mapped","sourceUrl":"https://www.openstreetmap.org/node/11374310203","externalIds":{"osm":"node/11374310203"},"lastObservedAt":"2026-06-28T05:11:05Z","demandMw":null,"country":"NR","confidence":78}},{"type":"Feature","id":"osm-node-11381773211","geometry":{"type":"Point","coordinates":[-64.482879,-31.105783]},"properties":{"id":"osm-node-11381773211","name":"LF Services","operator":null,"geographyId":"AR-19177384B39000171219781","category":"data_centre","subtype":"other_data_centre","lifecycle":"operational","targetYear":null,"coordinates":[-64.482879,-31.105783],"locationPrecision":"exact","valueKind":"observed","sourceIds":["openstreetmap-infrastructure"],"sourceType":"community_mapped","sourceUrl":"https://www.openstreetmap.org/node/11381773211","externalIds":{"osm":"node/11381773211"},"lastObservedAt":"2026-06-28T05:11:05Z","demandMw":null,"country":"AR","admin1Id":"AR-19177384B39000171219781","confidence":78}},{"type":"Feature","id":"osm-node-11383639206","geometry":{"type":"Point","coordinates":[-3.341078,40.519436]},"properties":{"id":"osm-node-11383639206","name":"Centro de Datos Alcalá (Alcalá Data Center)","operator":"Telefónica","geographyId":"ES30","category":"data_centre","subtype":"other_data_centre","lifecycle":"operational","targetYear":null,"coordinates":[-3.341078,40.519436],"locationPrecision":"exact","valueKind":"observed","sourceIds":["openstreetmap-infrastructure"],"sourceType":"community_mapped","sourceUrl":"https://www.openstreetmap.org/node/11383639206","externalIds":{"osm":"node/11383639206"},"lastObservedAt":"2026-06-28T05:11:05Z","demandMw":null,"website":"https://nabiax.com/nuestros-data-centers/espana/alcala-data-center/","country":"ES","admin1Id":"ES-25490228B43154843394848","confidence":78}},{"type":"Feature","id":"osm-node-11386279191","geometry":{"type":"Point","coordinates":[-97.801934,19.425827]},"properties":{"id":"osm-node-11386279191","name":"CST Zona Cero Mx","operator":"Javier MArtinez Roemro","geographyId":"MX-31927357B22008724034476","category":"data_centre","subtype":"other_data_centre","lifecycle":"operational","targetYear":null,"coordinates":[-97.801934,19.425827],"locationPrecision":"exact","valueKind":"observed","sourceIds":["openstreetmap-infrastructure"],"sourceType":"community_mapped","sourceUrl":"https://www.openstreetmap.org/node/11386279191","externalIds":{"osm":"node/11386279191"},"lastObservedAt":"2026-06-28T05:11:05Z","demandMw":null,"country":"MX","admin1Id":"MX-31927357B22008724034476","confidence":78}},{"type":"Feature","id":"osm-node-11386475042","geometry":{"type":"Point","coordinates":[4.787339,52.292874]},"properties":{"id":"osm-node-11386475042","name":"NorthC Datacenter Oude Meer","operator":"NorthC","geographyId":"NL32","category":"data_centre","subtype":"other_data_centre","lifecycle":"operational","targetYear":null,"coordinates":[4.787339,52.292874],"locationPrecision":"exact","valueKind":"observed","sourceIds":["openstreetmap-infrastructure"],"sourceType":"community_mapped","sourceUrl":"https://www.openstreetmap.org/node/11386475042","externalIds":{"osm":"node/11386475042"},"lastObservedAt":"2026-06-28T05:11:05Z","demandMw":null,"website":"https://www.northcdatacenters.com/northc-datacenters/oude-meer/","country":"NL","admin1Id":"NL-6811986B7118592816602","confidence":78}},{"type":"Feature","id":"osm-node-11400893880","geometry":{"type":"Point","coordinates":[-104.84316,39.593873]},"properties":{"id":"osm-node-11400893880","name":"Flexential - Denver - Centennial Data Center","operator":"Flexential","geographyId":"US-66186276B35012827062242","category":"data_centre","subtype":"other_data_centre","lifecycle":"operational","targetYear":null,"coordinates":[-104.84316,39.593873],"locationPrecision":"exact","valueKind":"observed","sourceIds":["openstreetmap-infrastructure"],"sourceType":"community_mapped","sourceUrl":"https://www.openstreetmap.org/node/11400893880","externalIds":{"osm":"node/11400893880"},"lastObservedAt":"2026-06-28T05:11:05Z","demandMw":null,"website":"https://www.flexential.com/data-centers/co/denver/centennial-data-center","address":{"street":"East Arapahoe Road","houseNumber":"12500","city":"Centennial","state":"CO","postcode":"80112","country":null},"country":"US","admin1Id":"US-66186276B35012827062242","confidence":78}},{"type":"Feature","id":"osm-node-11401173746","geometry":{"type":"Point","coordinates":[67.833691,40.179185]},"properties":{"id":"osm-node-11401173746","name":"Digital Realty","operator":"Digital Realty","geographyId":"UZ-4885205B95489449998794","category":"data_centre","subtype":"other_data_centre","lifecycle":"operational","targetYear":null,"coordinates":[67.833691,40.179185],"locationPrecision":"exact","valueKind":"observed","sourceIds":["openstreetmap-infrastructure"],"sourceType":"community_mapped","sourceUrl":"https://www.openstreetmap.org/node/11401173746","externalIds":{"osm":"node/11401173746"},"lastObservedAt":"2026-06-28T05:11:05Z","demandMw":null,"country":"UZ","admin1Id":"UZ-4885205B95489449998794","confidence":78}},{"type":"Feature","id":"osm-node-11411205375","geometry":{"type":"Point","coordinates":[121.658481,31.241857]},"properties":{"id":"osm-node-11411205375","name":"数据中心","operator":null,"geographyId":"CN-43563684B32591653033375","category":"data_centre","subtype":"other_data_centre","lifecycle":"operational","targetYear":null,"coordinates":[121.658481,31.241857],"locationPrecision":"exact","valueKind":"observed","sourceIds":["openstreetmap-infrastructure"],"sourceType":"community_mapped","sourceUrl":"https://www.openstreetmap.org/node/11411205375","externalIds":{"osm":"node/11411205375"},"lastObservedAt":"2026-06-28T05:11:05Z","demandMw":null,"country":"CN","admin1Id":"CN-43563684B32591653033375","confidence":78}},{"type":"Feature","id":"osm-node-11423466904","geometry":{"type":"Point","coordinates":[42.725492,42.188099]},"properties":{"id":"osm-node-11423466904","name":"Internet Exchange Point","operator":null,"geographyId":"GE-13066534B65630723466818","category":"data_centre","subtype":"other_data_centre","lifecycle":"operational","targetYear":null,"coordinates":[42.725492,42.188099],"locationPrecision":"exact","valueKind":"observed","sourceIds":["openstreetmap-infrastructure"],"sourceType":"community_mapped","sourceUrl":"https://www.openstreetmap.org/node/11423466904","externalIds":{"osm":"node/11423466904"},"lastObservedAt":"2026-06-28T05:11:05Z","demandMw":null,"website":"https://www.ixp.ge/","country":"GE","admin1Id":"GE-13066534B65630723466818","confidence":78}},{"type":"Feature","id":"osm-node-11426879977","geometry":{"type":"Point","coordinates":[5.406354,51.475948]},"properties":{"id":"osm-node-11426879977","name":"NorthC Datacenter Eindhoven 2","operator":null,"geographyId":"NL41","category":"data_centre","subtype":"other_data_centre","lifecycle":"operational","targetYear":null,"coordinates":[5.406354,51.475948],"locationPrecision":"exact","valueKind":"observed","sourceIds":["openstreetmap-infrastructure"],"sourceType":"community_mapped","sourceUrl":"https://www.openstreetmap.org/node/11426879977","externalIds":{"osm":"node/11426879977"},"lastObservedAt":"2026-06-28T05:11:05Z","demandMw":null,"website":"https://www.northcdatacenters.com/northc-datacenters/eindhoven-2/","address":{"street":"De Schakel","houseNumber":"35","city":"Eindhoven","state":null,"postcode":"5651GH","country":null},"country":"NL","admin1Id":"NL-6811986B61109061302483","confidence":78}},{"type":"Feature","id":"osm-node-11436652398","geometry":{"type":"Point","coordinates":[14.463893,50.069634]},"properties":{"id":"osm-node-11436652398","name":"MasterDC Praha","operator":null,"geographyId":"CZ01","category":"data_centre","subtype":"other_data_centre","lifecycle":"operational","targetYear":null,"coordinates":[14.463893,50.069634],"locationPrecision":"exact","valueKind":"observed","sourceIds":["openstreetmap-infrastructure"],"sourceType":"community_mapped","sourceUrl":"https://www.openstreetmap.org/node/11436652398","externalIds":{"osm":"node/11436652398"},"lastObservedAt":"2026-06-28T05:11:05Z","demandMw":null,"website":"https://www.master.cz/","country":"CZ","admin1Id":"CZ-73172107B16313596965023","confidence":78}},{"type":"Feature","id":"osm-node-11436652399","geometry":{"type":"Point","coordinates":[14.343732,50.101609]},"properties":{"id":"osm-node-11436652399","name":"DC6.cz","operator":null,"geographyId":"CZ01","category":"data_centre","subtype":"other_data_centre","lifecycle":"operational","targetYear":null,"coordinates":[14.343732,50.101609],"locationPrecision":"exact","valueKind":"observed","sourceIds":["openstreetmap-infrastructure"],"sourceType":"community_mapped","sourceUrl":"https://www.openstreetmap.org/node/11436652399","externalIds":{"osm":"node/11436652399"},"lastObservedAt":"2026-06-28T05:11:05Z","demandMw":null,"website":"https://dc6.cz","country":"CZ","admin1Id":"CZ-73172107B58641114734330","confidence":78}},{"type":"Feature","id":"osm-node-11436652400","geometry":{"type":"Point","coordinates":[17.484169,49.078311]},"properties":{"id":"osm-node-11436652400","name":"DC Monaco","operator":"O2 Czech Republic a.s.","geographyId":"CZ07","category":"data_centre","subtype":"other_data_centre","lifecycle":"operational","targetYear":null,"coordinates":[17.484169,49.078311],"locationPrecision":"exact","valueKind":"observed","sourceIds":["openstreetmap-infrastructure"],"sourceType":"community_mapped","sourceUrl":"https://www.openstreetmap.org/node/11436652400","externalIds":{"osm":"node/11436652400"},"lastObservedAt":"2026-06-28T05:11:05Z","demandMw":null,"country":"CZ","admin1Id":"CZ-73172107B87463303438563","confidence":78}},{"type":"Feature","id":"osm-node-11449625487","geometry":{"type":"Point","coordinates":[139.345689,35.598005]},"properties":{"id":"osm-node-11449625487","name":"NTT","operator":"NTT","geographyId":"JP-47310658B199342310790","category":"data_centre","subtype":"other_data_centre","lifecycle":"operational","targetYear":null,"coordinates":[139.345689,35.598005],"locationPrecision":"exact","valueKind":"observed","sourceIds":["openstreetmap-infrastructure"],"sourceType":"community_mapped","sourceUrl":"https://www.openstreetmap.org/node/11449625487","externalIds":{"osm":"way/1088995070"},"lastObservedAt":"2026-06-28T05:11:05Z","demandMw":null,"country":"JP","aliases":["NTT","NTT東日本 小曽木電話交換局","NTT武蔵村山電話交換局"],"admin1Id":"JP-47310658B199342310790","confidence":78}},{"type":"Feature","id":"osm-node-11465648283","geometry":{"type":"Point","coordinates":[120.441722,36.117184]},"properties":{"id":"osm-node-11465648283","name":"Mapped data centre · OSM 11465648283","operator":"山东联通青岛金家岭机房公司","geographyId":"CN","category":"data_centre","subtype":"other_data_centre","lifecycle":"operational","targetYear":null,"coordinates":[120.441722,36.117184],"locationPrecision":"exact","valueKind":"observed","sourceIds":["openstreetmap-infrastructure"],"sourceType":"community_mapped","sourceUrl":"https://www.openstreetmap.org/node/11465648283","externalIds":{"osm":"node/11465648283"},"lastObservedAt":"2026-06-28T05:11:05Z","demandMw":null,"country":"CN","confidence":78}},{"type":"Feature","id":"osm-node-11477298489","geometry":{"type":"Point","coordinates":[116.895035,-1.243074]},"properties":{"id":"osm-node-11477298489","name":"Traffic Management Center","operator":null,"geographyId":"ID-65028918B68445169823185","category":"data_centre","subtype":"other_data_centre","lifecycle":"operational","targetYear":null,"coordinates":[116.895035,-1.243074],"locationPrecision":"exact","valueKind":"observed","sourceIds":["openstreetmap-infrastructure"],"sourceType":"community_mapped","sourceUrl":"https://www.openstreetmap.org/node/11477298489","externalIds":{"osm":"node/11477298489"},"lastObservedAt":"2026-06-28T05:11:05Z","demandMw":null,"country":"ID","admin1Id":"ID-65028918B68445169823185","confidence":78}},{"type":"Feature","id":"osm-node-11497013684","geometry":{"type":"Point","coordinates":[127.194965,37.551247]},"properties":{"id":"osm-node-11497013684","name":"하남IDC","operator":"이지스자산운용","geographyId":"KR-68945753B43731078897969","category":"data_centre","subtype":"other_data_centre","lifecycle":"operational","targetYear":null,"coordinates":[127.194965,37.551247],"locationPrecision":"exact","valueKind":"observed","sourceIds":["openstreetmap-infrastructure"],"sourceType":"community_mapped","sourceUrl":"https://www.openstreetmap.org/node/11497013684","externalIds":{"osm":"node/11497013684"},"lastObservedAt":"2026-06-28T05:11:05Z","demandMw":null,"country":"KR","admin1Id":"KR-68945753B43731078897969","confidence":78}},{"type":"Feature","id":"osm-node-11497013685","geometry":{"type":"Point","coordinates":[127.195263,37.550497]},"properties":{"id":"osm-node-11497013685","name":"IBK기업은행 하남데이터센터","operator":null,"geographyId":"KR-68945753B43731078897969","category":"data_centre","subtype":"other_data_centre","lifecycle":"operational","targetYear":null,"coordinates":[127.195263,37.550497],"locationPrecision":"exact","valueKind":"observed","sourceIds":["openstreetmap-infrastructure"],"sourceType":"community_mapped","sourceUrl":"https://www.openstreetmap.org/node/11497013685","externalIds":{"osm":"node/11497013685"},"lastObservedAt":"2026-06-28T05:11:05Z","demandMw":null,"country":"KR","admin1Id":"KR-68945753B43731078897969","confidence":78}},{"type":"Feature","id":"osm-node-11522161405","geometry":{"type":"Point","coordinates":[16.846135,45.903392]},"properties":{"id":"osm-node-11522161405","name":"Data Link","operator":null,"geographyId":"HR02","category":"data_centre","subtype":"other_data_centre","lifecycle":"operational","targetYear":null,"coordinates":[16.846135,45.903392],"locationPrecision":"exact","valueKind":"observed","sourceIds":["openstreetmap-infrastructure"],"sourceType":"community_mapped","sourceUrl":"https://www.openstreetmap.org/node/11522161405","externalIds":{"osm":"node/11522161405"},"lastObservedAt":"2026-06-28T05:11:05Z","demandMw":null,"country":"HR","admin1Id":"HR-27960609B61435151319217","confidence":78}},{"type":"Feature","id":"osm-node-11570619130","geometry":{"type":"Point","coordinates":[14.656689,50.137991]},"properties":{"id":"osm-node-11570619130","name":"Datové centrum Zeleneč","operator":null,"geographyId":"CZ02","category":"data_centre","subtype":"other_data_centre","lifecycle":"operational","targetYear":null,"coordinates":[14.656689,50.137991],"locationPrecision":"exact","valueKind":"observed","sourceIds":["openstreetmap-infrastructure"],"sourceType":"community_mapped","sourceUrl":"https://www.openstreetmap.org/node/11570619130","externalIds":{"osm":"node/11570619130"},"lastObservedAt":"2026-06-28T05:11:05Z","demandMw":null,"website":"https://domaci.hn.cz/c1-66947440-v-male-vesnici-nedaleko-prahy-vzniklo-prisne-strezene-datove-centrum-schranuje-klicova-data-statu-i-informace-o-danich","country":"CZ","admin1Id":"CZ-73172107B58641114734330","confidence":78}},{"type":"Feature","id":"osm-node-11585032609","geometry":{"type":"Point","coordinates":[43.298,33.423463]},"properties":{"id":"osm-node-11585032609","name":"شعبة اللجان الطبية","operator":null,"geographyId":"IQ-90741666B95383716564687","category":"data_centre","subtype":"other_data_centre","lifecycle":"operational","targetYear":null,"coordinates":[43.298,33.423463],"locationPrecision":"exact","valueKind":"observed","sourceIds":["openstreetmap-infrastructure"],"sourceType":"community_mapped","sourceUrl":"https://www.openstreetmap.org/node/11585032609","externalIds":{"osm":"node/11585032609"},"lastObservedAt":"2026-06-28T05:11:05Z","demandMw":null,"country":"IQ","admin1Id":"IQ-90741666B95383716564687","confidence":78}},{"type":"Feature","id":"osm-node-11620214027","geometry":{"type":"Point","coordinates":[80.041788,12.779408]},"properties":{"id":"osm-node-11620214027","name":"MilkyUpizise","operator":"MilkyUpizise","geographyId":"IN-1811400B21167269026319","category":"data_centre","subtype":"other_data_centre","lifecycle":"operational","targetYear":null,"coordinates":[80.041788,12.779408],"locationPrecision":"exact","valueKind":"observed","sourceIds":["openstreetmap-infrastructure"],"sourceType":"community_mapped","sourceUrl":"https://www.openstreetmap.org/node/11620214027","externalIds":{"osm":"node/11620214027"},"lastObservedAt":"2026-06-28T05:11:05Z","demandMw":null,"website":"https://dev-milkyupizise.pantheonsite.io","address":{"street":"Annai builders ashtalakshmi nagar gudalur marai malai nagar","houseNumber":"No 70 D3","city":"chengalpattu","state":null,"postcode":"603209","country":null},"country":"IN","admin1Id":"IN-1811400B21167269026319","confidence":78}},{"type":"Feature","id":"osm-node-11622511245","geometry":{"type":"Point","coordinates":[78.4624,17.422919]},"properties":{"id":"osm-node-11622511245","name":"eShare.ai","operator":null,"geographyId":"IN-1811400B25711494603400","category":"data_centre","subtype":"other_data_centre","lifecycle":"operational","targetYear":null,"coordinates":[78.4624,17.422919],"locationPrecision":"exact","valueKind":"observed","sourceIds":["openstreetmap-infrastructure"],"sourceType":"community_mapped","sourceUrl":"https://www.openstreetmap.org/node/11622511245","externalIds":{"osm":"node/11622511245"},"lastObservedAt":"2026-06-28T05:11:05Z","demandMw":null,"website":"https://www.eshare.ai","facilityRef":"Cloud","address":{"street":"The Grand Building, Raj Bhavan Rd, Above KFC","houseNumber":"3rd Floor","city":"Hyderabad","state":null,"postcode":"500082","country":null},"country":"IN","admin1Id":"IN-1811400B25711494603400","confidence":78}},{"type":"Feature","id":"osm-node-11640787539","geometry":{"type":"Point","coordinates":[-0.000981,51.520602]},"properties":{"id":"osm-node-11640787539","name":"Netwise","operator":null,"geographyId":"GB-14339913B95766344400054","category":"data_centre","subtype":"other_data_centre","lifecycle":"operational","targetYear":null,"coordinates":[-0.000981,51.520602],"locationPrecision":"exact","valueKind":"observed","sourceIds":["openstreetmap-infrastructure"],"sourceType":"community_mapped","sourceUrl":"https://www.openstreetmap.org/node/11640787539","externalIds":{"osm":"node/11640787539"},"lastObservedAt":"2026-06-28T05:11:05Z","demandMw":null,"country":"GB","admin1Id":"GB-14339913B95766344400054","confidence":78}},{"type":"Feature","id":"osm-node-11654525058","geometry":{"type":"Point","coordinates":[8.773977,55.345385]},"properties":{"id":"osm-node-11654525058","name":"Ribe Hostingcenter","operator":"Ribe Mediehus","geographyId":"DK03","category":"data_centre","subtype":"other_data_centre","lifecycle":"operational","targetYear":null,"coordinates":[8.773977,55.345385],"locationPrecision":"exact","valueKind":"observed","sourceIds":["openstreetmap-infrastructure"],"sourceType":"community_mapped","sourceUrl":"https://www.openstreetmap.org/node/11654525058","externalIds":{"osm":"node/11654525058"},"lastObservedAt":"2026-06-28T05:11:05Z","demandMw":null,"website":"https://ribemediehus.dk/hosting/","country":"DK","admin1Id":"DK-84455774B68755790009873","confidence":78}},{"type":"Feature","id":"osm-node-11666916913","geometry":{"type":"Point","coordinates":[-111.970076,33.395585]},"properties":{"id":"osm-node-11666916913","name":"EdgeConneX Data Center","operator":"EdgeConneX","geographyId":"US-66186276B89395128410123","category":"data_centre","subtype":"other_data_centre","lifecycle":"operational","targetYear":null,"coordinates":[-111.970076,33.395585],"locationPrecision":"exact","valueKind":"observed","sourceIds":["openstreetmap-infrastructure"],"sourceType":"community_mapped","sourceUrl":"https://www.openstreetmap.org/node/11666916913","externalIds":{"osm":"way/1015704066"},"lastObservedAt":"2026-06-28T05:11:05Z","demandMw":null,"country":"US","aliases":["EdgeConneX Data Center","EdgeConneX PHX02 Data Center"],"admin1Id":"US-66186276B89395128410123","confidence":78}},{"type":"Feature","id":"osm-node-11681955880","geometry":{"type":"Point","coordinates":[49.221262,36.146916]},"properties":{"id":"osm-node-11681955880","name":"Hi Data","operator":"Company","geographyId":"IR-17685810B38369866596405","category":"data_centre","subtype":"other_data_centre","lifecycle":"operational","targetYear":null,"coordinates":[49.221262,36.146916],"locationPrecision":"exact","valueKind":"observed","sourceIds":["openstreetmap-infrastructure"],"sourceType":"community_mapped","sourceUrl":"https://www.openstreetmap.org/node/11681955880","externalIds":{"osm":"node/11681955880"},"lastObservedAt":"2026-06-28T05:11:05Z","demandMw":null,"website":"https://hidata.org","country":"IR","admin1Id":"IR-17685810B38369866596405","confidence":78}},{"type":"Feature","id":"osm-node-11691867437","geometry":{"type":"Point","coordinates":[2.055795,43.911912]},"properties":{"id":"osm-node-11691867437","name":"Crypteo","operator":"Crypteo","geographyId":"FRJ2","category":"data_centre","subtype":"other_data_centre","lifecycle":"operational","targetYear":null,"coordinates":[2.055795,43.911912],"locationPrecision":"exact","valueKind":"observed","sourceIds":["openstreetmap-infrastructure"],"sourceType":"community_mapped","sourceUrl":"https://www.openstreetmap.org/node/11691867437","externalIds":{"osm":"node/11691867437"},"lastObservedAt":"2026-06-28T05:11:05Z","demandMw":null,"website":"https://www.crypteo.com/","country":"FR","admin1Id":"FR-19338628B57683459369229","confidence":78}},{"type":"Feature","id":"osm-node-11698016745","geometry":{"type":"Point","coordinates":[85.128276,25.595957]},"properties":{"id":"osm-node-11698016745","name":"DIGITAL COMPUTER CENTRE (DCC)","operator":null,"geographyId":"IN-1811400B26595099860318","category":"data_centre","subtype":"other_data_centre","lifecycle":"operational","targetYear":null,"coordinates":[85.128276,25.595957],"locationPrecision":"exact","valueKind":"observed","sourceIds":["openstreetmap-infrastructure"],"sourceType":"community_mapped","sourceUrl":"https://www.openstreetmap.org/node/11698016745","externalIds":{"osm":"node/11698016745"},"lastObservedAt":"2026-06-28T05:11:05Z","demandMw":null,"country":"IN","admin1Id":"IN-1811400B26595099860318","confidence":78}},{"type":"Feature","id":"osm-node-11698484259","geometry":{"type":"Point","coordinates":[11.581978,50.932092]},"properties":{"id":"osm-node-11698484259","name":"Universitätsrechenzentrum","operator":"Friedrich-Schiller-Universität Jena","geographyId":"DEG0","category":"data_centre","subtype":"other_data_centre","lifecycle":"operational","targetYear":null,"coordinates":[11.581978,50.932092],"locationPrecision":"exact","valueKind":"observed","sourceIds":["openstreetmap-infrastructure"],"sourceType":"community_mapped","sourceUrl":"https://www.openstreetmap.org/node/11698484259","externalIds":{"osm":"node/11698484259"},"lastObservedAt":"2026-06-28T05:11:05Z","demandMw":null,"country":"DE","admin1Id":"DE-10402087B67217417145666","confidence":78}},{"type":"Feature","id":"osm-node-11698788839","geometry":{"type":"Point","coordinates":[37.53857,-2.800132]},"properties":{"id":"osm-node-11698788839","name":"Server Room","operator":null,"geographyId":"KE-32016919B31527762068828","category":"data_centre","subtype":"other_data_centre","lifecycle":"operational","targetYear":null,"coordinates":[37.53857,-2.800132],"locationPrecision":"exact","valueKind":"observed","sourceIds":["openstreetmap-infrastructure"],"sourceType":"community_mapped","sourceUrl":"https://www.openstreetmap.org/node/11698788839","externalIds":{"osm":"node/11698788839"},"lastObservedAt":"2026-06-28T05:11:05Z","demandMw":null,"facilityRef":"SR","country":"KE","admin1Id":"KE-32016919B31527762068828","confidence":78}},{"type":"Feature","id":"osm-node-11710505073","geometry":{"type":"Point","coordinates":[36.748959,-1.349869]},"properties":{"id":"osm-node-11710505073","name":"Mapped data centre · OSM 11710505073","operator":null,"geographyId":"KE-32016919B57908315498598","category":"data_centre","subtype":"other_data_centre","lifecycle":"operational","targetYear":null,"coordinates":[36.748959,-1.349869],"locationPrecision":"exact","valueKind":"observed","sourceIds":["openstreetmap-infrastructure"],"sourceType":"community_mapped","sourceUrl":"https://www.openstreetmap.org/node/11710505073","externalIds":{"osm":"node/11710505073"},"lastObservedAt":"2026-06-28T05:11:05Z","demandMw":null,"country":"KE","admin1Id":"KE-32016919B57908315498598","confidence":78}},{"type":"Feature","id":"osm-node-11721960464","geometry":{"type":"Point","coordinates":[-122.920669,45.570636]},"properties":{"id":"osm-node-11721960464","name":"QTS Data Center - Hillsboro 3","operator":null,"geographyId":"US-66186276B97229519707655","category":"data_centre","subtype":"other_data_centre","lifecycle":"announced","targetYear":null,"coordinates":[-122.920669,45.570636],"locationPrecision":"exact","valueKind":"observed","sourceIds":["openstreetmap-infrastructure"],"sourceType":"community_mapped","sourceUrl":"https://www.openstreetmap.org/node/11721960464","externalIds":{"osm":"node/11721960464"},"lastObservedAt":"2026-06-28T05:11:05Z","demandMw":null,"country":"US","admin1Id":"US-66186276B97229519707655","confidence":78}},{"type":"Feature","id":"osm-node-11731636038","geometry":{"type":"Point","coordinates":[-63.594253,44.654981]},"properties":{"id":"osm-node-11731636038","name":"Mapped data centre · OSM 11731636038","operator":null,"geographyId":"CA-82249235B69645938038492","category":"data_centre","subtype":"other_data_centre","lifecycle":"operational","targetYear":null,"coordinates":[-63.594253,44.654981],"locationPrecision":"exact","valueKind":"observed","sourceIds":["openstreetmap-infrastructure"],"sourceType":"community_mapped","sourceUrl":"https://www.openstreetmap.org/node/11731636038","externalIds":{"osm":"node/11731636038"},"lastObservedAt":"2026-06-28T05:11:05Z","demandMw":null,"country":"CA","admin1Id":"CA-82249235B69645938038492","confidence":78}},{"type":"Feature","id":"osm-node-11748636180","geometry":{"type":"Point","coordinates":[8.639788,50.195252]},"properties":{"id":"osm-node-11748636180","name":"Iron Mountain FRA-2","operator":"Iron Mountain, Inc.","geographyId":"DE71","category":"data_centre","subtype":"other_data_centre","lifecycle":"operational","targetYear":null,"coordinates":[8.639788,50.195252],"locationPrecision":"exact","valueKind":"observed","sourceIds":["openstreetmap-infrastructure"],"sourceType":"community_mapped","sourceUrl":"https://www.openstreetmap.org/node/11748636180","externalIds":{"osm":"node/11748636180"},"lastObservedAt":"2026-06-28T05:11:05Z","demandMw":null,"website":"https://www.ironmountain.com/data-centers/locations/frankfurt-data-center","facilityRef":"FRA-2","address":{"street":"Heinrich-Lanz-Allee","houseNumber":"47","city":"Frankfurt am Main","state":null,"postcode":"60437","country":null},"country":"DE","admin1Id":"DE-10402087B85226028911536","confidence":78}},{"type":"Feature","id":"osm-node-11761004770","geometry":{"type":"Point","coordinates":[23.383464,49.942075]},"properties":{"id":"osm-node-11761004770","name":"Mapped data centre · OSM 11761004770","operator":"Apple Inc.","geographyId":"UA-14850775B26941409899318","category":"data_centre","subtype":"other_data_centre","lifecycle":"operational","targetYear":null,"coordinates":[23.383464,49.942075],"locationPrecision":"exact","valueKind":"observed","sourceIds":["openstreetmap-infrastructure"],"sourceType":"community_mapped","sourceUrl":"https://www.openstreetmap.org/node/11761004770","externalIds":{"osm":"node/11761004770"},"lastObservedAt":"2026-06-28T05:11:05Z","demandMw":null,"country":"UA","admin1Id":"UA-14850775B26941409899318","confidence":78}},{"type":"Feature","id":"osm-node-11769470105","geometry":{"type":"Point","coordinates":[-35.876185,-7.224743]},"properties":{"id":"osm-node-11769470105","name":"ISPTEC Telecomunicacoes","operator":null,"geographyId":"BR-14911670B97385369352280","category":"data_centre","subtype":"other_data_centre","lifecycle":"operational","targetYear":null,"coordinates":[-35.876185,-7.224743],"locationPrecision":"exact","valueKind":"observed","sourceIds":["openstreetmap-infrastructure"],"sourceType":"community_mapped","sourceUrl":"https://www.openstreetmap.org/node/11769470105","externalIds":{"osm":"node/11769470105"},"lastObservedAt":"2026-06-28T05:11:05Z","demandMw":null,"website":"https://www.isptec.com.br/","address":{"street":"Rua Paulo de Frontin","houseNumber":"175","city":"Campina Grande","state":null,"postcode":"58407-368","country":null},"country":"BR","admin1Id":"BR-14911670B97385369352280","confidence":78}},{"type":"Feature","id":"osm-node-11815482844","geometry":{"type":"Point","coordinates":[-83.627629,41.807282]},"properties":{"id":"osm-node-11815482844","name":"Mapped data centre · OSM 11815482844","operator":null,"geographyId":"US-66186276B37442548568489","category":"data_centre","subtype":"other_data_centre","lifecycle":"operational","targetYear":null,"coordinates":[-83.627629,41.807282],"locationPrecision":"exact","valueKind":"observed","sourceIds":["openstreetmap-infrastructure"],"sourceType":"community_mapped","sourceUrl":"https://www.openstreetmap.org/node/11815482844","externalIds":{"osm":"node/11815482844"},"lastObservedAt":"2026-06-28T05:11:05Z","demandMw":null,"country":"US","admin1Id":"US-66186276B37442548568489","confidence":78}},{"type":"Feature","id":"osm-node-11822939313","geometry":{"type":"Point","coordinates":[11.328551,43.322716]},"properties":{"id":"osm-node-11822939313","name":"E. D. Accounting Siena","operator":null,"geographyId":"ITI1","category":"data_centre","subtype":"other_data_centre","lifecycle":"operational","targetYear":null,"coordinates":[11.328551,43.322716],"locationPrecision":"exact","valueKind":"observed","sourceIds":["openstreetmap-infrastructure"],"sourceType":"community_mapped","sourceUrl":"https://www.openstreetmap.org/node/11822939313","externalIds":{"osm":"node/11822939313"},"lastObservedAt":"2026-06-28T05:11:05Z","demandMw":null,"address":{"street":"Via dei Montanini","houseNumber":"87","city":"Siena","state":null,"postcode":"53100","country":null},"country":"IT","admin1Id":"IT-72843720B863019116732","confidence":78}},{"type":"Feature","id":"osm-node-11878896378","geometry":{"type":"Point","coordinates":[78.803177,23.86575]},"properties":{"id":"osm-node-11878896378","name":"Spatioworld Tracker GPS","operator":null,"geographyId":"IN-1811400B75807316846587","category":"data_centre","subtype":"other_data_centre","lifecycle":"operational","targetYear":null,"coordinates":[78.803177,23.86575],"locationPrecision":"exact","valueKind":"observed","sourceIds":["openstreetmap-infrastructure"],"sourceType":"community_mapped","sourceUrl":"https://www.openstreetmap.org/node/11878896378","externalIds":{"osm":"node/11878896378"},"lastObservedAt":"2026-06-28T05:11:05Z","demandMw":null,"country":"IN","admin1Id":"IN-1811400B75807316846587","confidence":78}},{"type":"Feature","id":"osm-node-11891834487","geometry":{"type":"Point","coordinates":[30.4923,50.449962]},"properties":{"id":"osm-node-11891834487","name":"Trident server hosting","operator":"lostyawolfer","geographyId":"UA-14850775B37539954297462","category":"data_centre","subtype":"other_data_centre","lifecycle":"operational","targetYear":null,"coordinates":[30.4923,50.449962],"locationPrecision":"exact","valueKind":"observed","sourceIds":["openstreetmap-infrastructure"],"sourceType":"community_mapped","sourceUrl":"https://www.openstreetmap.org/node/11891834487","externalIds":{"osm":"node/11891834487"},"lastObservedAt":"2026-06-28T05:11:05Z","demandMw":null,"country":"UA","admin1Id":"UA-14850775B37539954297462","confidence":78}},{"type":"Feature","id":"osm-node-11902288339","geometry":{"type":"Point","coordinates":[-0.782054,51.413861]},"properties":{"id":"osm-node-11902288339","name":"AWS Bracknell Data Centre","operator":"Amazon Web Services","geographyId":"GB-14339913B95766344400054","category":"data_centre","subtype":"other_data_centre","lifecycle":"operational","targetYear":null,"coordinates":[-0.782054,51.413861],"locationPrecision":"exact","valueKind":"observed","sourceIds":["openstreetmap-infrastructure"],"sourceType":"community_mapped","sourceUrl":"https://www.openstreetmap.org/node/11902288339","externalIds":{"osm":"way/1270223634"},"lastObservedAt":"2026-06-28T05:11:05Z","demandMw":null,"country":"GB","aliases":["AWS Bracknell Data Centre","AWS Didcot Data Centre"],"admin1Id":"GB-14339913B95766344400054","confidence":78}},{"type":"Feature","id":"osm-node-11902392009","geometry":{"type":"Point","coordinates":[-1.764102,51.524028]},"properties":{"id":"osm-node-11902392009","name":"AWS Swindon Data Centre","operator":"Amazon Web Services","geographyId":"GB-14339913B95766344400054","category":"data_centre","subtype":"other_data_centre","lifecycle":"operational","targetYear":null,"coordinates":[-1.764102,51.524028],"locationPrecision":"exact","valueKind":"observed","sourceIds":["openstreetmap-infrastructure"],"sourceType":"community_mapped","sourceUrl":"https://www.openstreetmap.org/node/11902392009","externalIds":{"osm":"way/1122158384"},"lastObservedAt":"2026-06-28T05:11:05Z","demandMw":null,"country":"GB","aliases":["AWS Swindon Data Centre"],"admin1Id":"GB-14339913B95766344400054","confidence":78}},{"type":"Feature","id":"osm-node-11909918210","geometry":{"type":"Point","coordinates":[8.324619,47.04169]},"properties":{"id":"osm-node-11909918210","name":"Rechenzentrum Stollen Luzern","operator":"EWL AG","geographyId":"CH06","category":"data_centre","subtype":"other_data_centre","lifecycle":"operational","targetYear":null,"coordinates":[8.324619,47.04169],"locationPrecision":"exact","valueKind":"observed","sourceIds":["openstreetmap-infrastructure"],"sourceType":"community_mapped","sourceUrl":"https://www.openstreetmap.org/node/11909918210","externalIds":{"osm":"node/11909918210"},"lastObservedAt":"2026-06-28T05:11:05Z","demandMw":null,"website":"https://rz-stollen.ch/datacenter/","address":{"street":"Tribschenmoosweg","houseNumber":"2","city":"Luzern","state":null,"postcode":"6005","country":null},"country":"CH","admin1Id":"CH-70761945B29073934101403","confidence":78}},{"type":"Feature","id":"osm-node-11920710931","geometry":{"type":"Point","coordinates":[-5.857663,43.360839]},"properties":{"id":"osm-node-11920710931","name":"NTT","operator":"NTT","geographyId":"ES12","category":"data_centre","subtype":"other_data_centre","lifecycle":"operational","targetYear":null,"coordinates":[-5.857663,43.360839],"locationPrecision":"exact","valueKind":"observed","sourceIds":["openstreetmap-infrastructure"],"sourceType":"community_mapped","sourceUrl":"https://www.openstreetmap.org/node/11920710931","externalIds":{"osm":"node/11920710931"},"lastObservedAt":"2026-06-28T05:11:05Z","demandMw":null,"country":"ES","admin1Id":"ES-25490228B24314700704920","confidence":78}},{"type":"Feature","id":"osm-node-11924506303","geometry":{"type":"Point","coordinates":[-117.503021,33.91029]},"properties":{"id":"osm-node-11924506303","name":"IT","operator":null,"geographyId":"US-66186276B43071933723331","category":"data_centre","subtype":"other_data_centre","lifecycle":"operational","targetYear":null,"coordinates":[-117.503021,33.91029],"locationPrecision":"exact","valueKind":"observed","sourceIds":["openstreetmap-infrastructure"],"sourceType":"community_mapped","sourceUrl":"https://www.openstreetmap.org/node/11924506303","externalIds":{"osm":"node/11924506303"},"lastObservedAt":"2026-06-28T05:11:05Z","demandMw":null,"country":"US","admin1Id":"US-66186276B43071933723331","confidence":78}},{"type":"Feature","id":"osm-node-11938614120","geometry":{"type":"Point","coordinates":[-111.977335,33.405131]},"properties":{"id":"osm-node-11938614120","name":"Alembic Computer Services, Inc.","operator":null,"geographyId":"US-66186276B89395128410123","category":"data_centre","subtype":"other_data_centre","lifecycle":"operational","targetYear":null,"coordinates":[-111.977335,33.405131],"locationPrecision":"exact","valueKind":"observed","sourceIds":["openstreetmap-infrastructure"],"sourceType":"community_mapped","sourceUrl":"https://www.openstreetmap.org/node/11938614120","externalIds":{"osm":"node/11938614120"},"lastObservedAt":"2026-06-28T05:11:05Z","demandMw":null,"country":"US","admin1Id":"US-66186276B89395128410123","confidence":78}},{"type":"Feature","id":"osm-node-11938631189","geometry":{"type":"Point","coordinates":[-111.971154,33.413186]},"properties":{"id":"osm-node-11938631189","name":"J-Curve Technologies","operator":null,"geographyId":"US-66186276B89395128410123","category":"data_centre","subtype":"other_data_centre","lifecycle":"operational","targetYear":null,"coordinates":[-111.971154,33.413186],"locationPrecision":"exact","valueKind":"observed","sourceIds":["openstreetmap-infrastructure"],"sourceType":"community_mapped","sourceUrl":"https://www.openstreetmap.org/node/11938631189","externalIds":{"osm":"node/11938631189"},"lastObservedAt":"2026-06-28T05:11:05Z","demandMw":null,"country":"US","admin1Id":"US-66186276B89395128410123","confidence":78}},{"type":"Feature","id":"osm-node-11942572541","geometry":{"type":"Point","coordinates":[7.524864,47.752301]},"properties":{"id":"osm-node-11942572541","name":"Microsoft","operator":"Microsoft","geographyId":"FRF1","category":"data_centre","subtype":"other_data_centre","lifecycle":"operational","targetYear":null,"coordinates":[7.524864,47.752301],"locationPrecision":"exact","valueKind":"observed","sourceIds":["openstreetmap-infrastructure"],"sourceType":"community_mapped","sourceUrl":"https://www.openstreetmap.org/node/11942572541","externalIds":{"osm":"node/11942572541"},"lastObservedAt":"2026-06-28T05:11:05Z","demandMw":null,"country":"FR","admin1Id":"FR-19338628B74392602121343","confidence":78}},